"id","ident","type","name","latitude_deg","longitude_deg","elevation_ft","continent","iso_country","iso_region","municipality","scheduled_service","gps_code","iata_code","local_code","home_link","wikipedia_link","keywords"
3,"AGGH","medium_airport","Honiara International Airport",-9.428,160.055,28,"OC","SB","SB-CT","Honiara","yes","AGGH","HIR","","","http://en.wikipedia.org/wiki/Honiara_International_Airport","Henderson Field"
4,"AGGM","medium_airport","Munda Airport",-8.32797,157.263,10,"OC","SB","SB-WE","","yes","AGGM","MUA","","","http://en.wikipedia.org/wiki/Munda_Airport",""
8,"ANYN","medium_airport","Nauru International Airport",-0.547458,166.919,22,"OC","NR","NR-14","Yaren District","yes","ANYN","INU","","","http://en.wikipedia.org/wiki/Nauru_International_Airport","ANAU"
53,"AYBK","medium_airport","Buka Airport",-5.42232,154.673,11,"OC","PG","PG-NSB","Buka Island","yes","AYBK","BUA","","","http://en.wikipedia.org/wiki/Buka_Airport",""
54,"AYCH","medium_airport","Chimbu Airport",-6.02429,144.971,4974,"OC","PG","PG-CPK","Kundiawa","yes","AYCH","CMU","","","http://en.wikipedia.org/wiki/Chimbu_Airport",""
55,"AYDU","medium_airport","Daru Airport",-9.08676,143.208,20,"OC","PG","PG-WPD","Daru","yes","AYDU","DAU","","","http://en.wikipedia.org/wiki/Daru_Airport",""
56,"AYGA","medium_airport","Goroka Airport",-6.08169,145.392,5282,"OC","PG","PG-EHG","Goronka","yes","AYGA","GKA","","","http://en.wikipedia.org/wiki/Goroka_Airport",""
57,"AYGN","medium_airport","Gurney Airport",-10.3115,150.334,88,"OC","PG","PG-MBA","Gurney","yes","AYGN","GUR","","","http://en.wikipedia.org/wiki/Gurney_Airport",""
58,"AYGR","medium_airport","Girua Airport",-8.80454,148.309,311,"OC","PG","PG-NPP","Popondetta","yes","AYGR","PNP","","","http://en.wikipedia.org/wiki/Girua_Airport",""
59,"AYHK","medium_airport","Kimbe Airport",-5.46217,150.405,66,"OC","PG","PG-WBK","Hoskins","yes","AYHK","HKN","","","http://en.wikipedia.org/wiki/Hoskins_Airport",""
60,"AYKM","medium_airport","Kerema Airport",-7.96361,145.771,10,"OC","PG","PG-GPK","Kerema","yes","AYKM","KMA","","","http://en.wikipedia.org/wiki/Kerema_Airport",""
61,"AYKV","medium_airport","Kavieng Airport",-2.5794,150.808,7,"OC","PG","PG-NIK","Kavieng","yes","AYKV","KVG","","","http://en.wikipedia.org/wiki/Kavieng_Airport",""
62,"AYMD","medium_airport","Madang Airport",-5.20708,145.789,20,"OC","PG","PG-MPM","Madang","yes","AYMD","MAG","","","http://en.wikipedia.org/wiki/Madang_Airport",""
63,"AYMH","medium_airport","Mount Hagen Kagamuga Airport",-5.82679,144.296,5388,"OC","PG","PG-WHM","Mount Hagen","yes","AYMH","HGU","","","http://en.wikipedia.org/wiki/Mount_Hagen_Airport",""
64,"AYMN","medium_airport","Mendi Airport",-6.14774,143.657,5680,"OC","PG","PG-SHM","Mendi","yes","AYMN","MDU","","","http://en.wikipedia.org/wiki/Mendi_Airport",""
65,"AYMO","medium_airport","Momote Airport",-2.06189,147.424,12,"OC","PG","PG-MRL","Manus Island","yes","AYMO","MAS","","","http://en.wikipedia.org/wiki/Momote_Airport",""
66,"AYNZ","medium_airport","Nadzab Airport",-6.5698,146.726,239,"OC","PG","PG-MPL","Lae","yes","AYNZ","LAE","","","http://en.wikipedia.org/wiki/Lae_Nadzab_Airport","MFO"
67,"AYPY","large_airport","Port Moresby Jacksons International Airport",-9.44338,147.22,146,"OC","PG","PG-NCD","Port Moresby","yes","AYPY","POM","","","http://en.wikipedia.org/wiki/Jacksons_International_Airport",""
68,"AYTK","medium_airport","Tokua Airport",-4.34046,152.38,32,"OC","PG","PG-EBR","Tokua","yes","AYTK","RAB","","","http://en.wikipedia.org/wiki/Rabaul_Airport",""
69,"AYVN","medium_airport","Vanimo Airport",-2.6926,141.303,10,"OC","PG","PG-SAN","Vanimo","yes","AYVN","VAI","","","http://en.wikipedia.org/wiki/Vanimo_Airport",""
70,"AYWD","medium_airport","Wapenamanda Airport",-5.6433,143.895,5889,"OC","PG","PG-EPW","","yes","AYWD","WBM","","","http://en.wikipedia.org/wiki/Wapenamanda_Airport",""
71,"AYWK","medium_airport","Wewak International Airport",-3.58383,143.669,19,"OC","PG","PG-ESW","Wewak","yes","AYWK","WWK","","","http://en.wikipedia.org/wiki/Wewak_International_Airport",""
113,"BGBW","medium_airport","Narsarsuaq Airport",61.1605,-45.426,112,"NA","GL","GL-U-A","Narsarsuaq","yes","BGBW","UAK","","","http://en.wikipedia.org/wiki/Narsarsuaq_Airport",""
114,"BGGH","medium_airport","Godthaab / Nuuk Airport",64.1909,-51.6781,283,"NA","GL","GL-U-A","Nuuk","yes","BGGH","GOH","","","http://en.wikipedia.org/wiki/Nuuk_Airport","Nuussuaq"
115,"BGSF","medium_airport","Kangerlussuaq Airport",67.0122,-50.7116,165,"NA","GL","GL-U-A","Kangerlussuaq","yes","BGSF","SFJ","","","http://en.wikipedia.org/wiki/Kangerlussuaq_Airport","Sondre Stromfjord"
117,"BIAR","medium_airport","Akureyri Airport",65.66,-18.0727,6,"EU","IS","IS-6","Akureyri","yes","BIAR","AEY","","","http://en.wikipedia.org/wiki/Akureyri_Airport",""
119,"BIEG","medium_airport","Egilsstaðir Airport",65.2833,-14.4014,76,"EU","IS","IS-7","Egilsstaðir","yes","BIEG","EGS","","","http://en.wikipedia.org/wiki/Egilssta%C3%B0ir_Airport",""
120,"BIHN","medium_airport","Hornafjörður Airport",64.2956,-15.2272,24,"EU","IS","IS-8","Höfn","yes","BIHN","HFN","","","https://en.wikipedia.org/wiki/Hornafj%C3%B6r%C3%B0ur_Airport",""
121,"BIHU","medium_airport","Húsavík Airport",65.9523,-17.426,48,"EU","IS","IS-6","Húsavík","yes","BIHU","HZK","","","https://en.wikipedia.org/wiki/H%C3%BAsav%C3%ADk_Airport",""
122,"BIIS","medium_airport","Ísafjörður Airport",66.0581,-23.1353,8,"EU","IS","IS-4","Ísafjörður","yes","BIIS","IFJ","","","http://en.wikipedia.org/wiki/%C3%8Dsafj%C3%B6r%C3%B0ur_Airport",""
123,"BIKF","large_airport","Keflavik International Airport",63.985,-22.6056,171,"EU","IS","IS-2","Reykjavík","yes","BIKF","KEF","","","http://en.wikipedia.org/wiki/Keflav%C3%ADk_International_Airport","Keflavik Naval Air Station,REK"
125,"BIRK","medium_airport","Reykjavik Airport",64.13,-21.9406,48,"EU","IS","IS-1","Reykjavik","yes","BIRK","RKV","","","http://en.wikipedia.org/wiki/Reykjav%C3%ADk_Airport","REK"
126,"BISI","medium_airport","Siglufjörður Airport",66.1333,-18.9167,10,"EU","IS","IS-6","Siglufjörður","no","BISI","SIJ","","","https://en.wikipedia.org/wiki/Siglufj%C3%B6r%C3%B0ur_Airport",""
128,"BIVM","medium_airport","Vestmannaeyjar Airport",63.4243,-20.2789,326,"EU","IS","IS-8","Vestmannaeyjar","no","BIVM","VEY","","","http://en.wikipedia.org/wiki/Vestmannaeyjar_Airport",""
517,"SSZW","medium_airport","Ponta Grossa Airport - Comandante Antonio Amilton Beraldo",-25.1847,-50.1441,2588,"SA","BR","BR-PR","Ponta Grossa","yes","SSZW","PGZ","SSZW","","https://pt.wikipedia.org/wiki/Aeroporto_de_Ponta_Grossa","Sant'ana Airport"
538,"SWGN","medium_airport","Araguaína Airport",-7.22787,-48.2405,771,"SA","BR","BR-TO","Araguaína","yes","SWGN","AUX","SWGN","","https://en.wikipedia.org/wiki/Aragua%C3%ADna_Airport",""
1652,"CYAC","medium_airport","Cat Lake Airport",51.7272,-91.8244,1344,"NA","CA","CA-ON","Cat Lake","yes","CYAC","YAC","","","http://en.wikipedia.org/wiki/Cat_Lake_Airport",""
1655,"CYAH","medium_airport","La Grande-4 Airport",53.7547,-73.6753,1005,"NA","CA","CA-QC","La Grande-4","no","CYAH","YAH","","","http://en.wikipedia.org/wiki/La_Grande-4_Airport","YAH"
1656,"CYAL","medium_airport","Alert Bay Airport",50.5822,-126.916,240,"NA","CA","CA-BC","Alert Bay","no","CYAL","YAL","","","http://en.wikipedia.org/wiki/Alert_Bay_Airport",""
1657,"CYAM","medium_airport","Sault Ste Marie Airport",46.485,-84.5094,630,"NA","CA","CA-ON","Sault Ste Marie","yes","CYAM","YAM","","http://www.saultairport.com/","http://en.wikipedia.org/wiki/Sault_Ste._Marie_Airport",""
1658,"CYAQ","medium_airport","Kasabonika Airport",53.5247,-88.6428,672,"NA","CA","CA-ON","Kasabonika","yes","CYAQ","XKS","","","http://en.wikipedia.org/wiki/Kasabonika_Airport","YAQ"
1659,"CYAS","medium_airport","Kangirsuk Airport",60.0272,-69.9992,403,"NA","CA","CA-QC","Kangirsuk","yes","CYAS","YKG","","","http://en.wikipedia.org/wiki/Kangirsuk_Airport","YAS"
1660,"CYAT","medium_airport","Attawapiskat Airport",52.9275,-82.4319,31,"NA","CA","CA-ON","Attawapiskat","yes","CYAT","YAT","","","http://en.wikipedia.org/wiki/Attawapiskat_Airport",""
1665,"CYAY","medium_airport","St. Anthony Airport",51.3919,-56.0831,108,"NA","CA","CA-NL","St. Anthony","yes","CYAY","YAY","","","http://en.wikipedia.org/wiki/St._Anthony_Airport",""
1666,"CYAZ","medium_airport","Tofino / Long Beach Airport",49.0798,-125.776,80,"NA","CA","CA-BC","Tofino","yes","CYAZ","YAZ","","http://www.acrd.bc.ca/long-beach-airport","http://en.wikipedia.org/wiki/Tofino_Airport",""
1668,"CYBB","medium_airport","Kugaaruk Airport",68.5344,-89.8081,56,"NA","CA","CA-NU","Kugaaruk","yes","CYBB","YBB","","","http://en.wikipedia.org/wiki/Kugaaruk_Airport","YBB, Pelly Bay Townsite Airport"
1669,"CYBC","medium_airport","Baie Comeau Airport",49.1325,-68.2044,71,"NA","CA","CA-QC","Baie-Comeau","yes","CYBC","YBC","","","http://en.wikipedia.org/wiki/Baie-Comeau_Airport",""
1670,"CYBD","medium_airport","Bella Coola Airport",52.3875,-126.596,117,"NA","CA","CA-BC","Bella Coola","yes","CYBD","QBC","","","http://en.wikipedia.org/wiki/Bella_Coola_Airport","YBD"
1671,"CYBE","medium_airport","Uranium City Airport",59.5614,-108.481,1044,"NA","CA","CA-SK","Uranium City","yes","CYBE","YBE","","","http://en.wikipedia.org/wiki/Uranium_City_Airport",""
1672,"CYBF","medium_airport","Bonnyville Airport",54.3042,-110.744,1836,"NA","CA","CA-AB","Bonnyville","yes","CYBF","YBY","","http://town.bonnyville.ab.ca/livingin/airport/index.html","http://en.wikipedia.org/wiki/Bonnyville_Airport","YBF"
1673,"CYBG","medium_airport","CFB Bagotville",48.3306,-70.9964,522,"NA","CA","CA-QC","Bagotville","yes","CYBG","YBG","","","http://en.wikipedia.org/wiki/CFB_Bagotville","Bagotville Airport"
1674,"CYBK","medium_airport","Baker Lake Airport",64.2989,-96.0778,59,"NA","CA","CA-NU","Baker Lake","yes","CYBK","YBK","","","http://en.wikipedia.org/wiki/Baker_Lake_Airport",""
1675,"CYBL","medium_airport","Campbell River Airport",49.9508,-125.271,346,"NA","CA","CA-BC","Campbell River","yes","CYBL","YBL","","","http://en.wikipedia.org/wiki/Campbell_River_Airport",""
1677,"CYBQ","medium_airport","Tadoule Lake Airport",58.7061,-98.5122,923,"NA","CA","CA-MB","Tadoule Lake","yes","CYBQ","XTL","","","http://en.wikipedia.org/wiki/Tadoule_Lake_Airport","YBQ"
1678,"CYBR","medium_airport","Brandon Municipal Airport",49.91,-99.9519,1343,"NA","CA","CA-MB","Brandon","yes","CYBR","YBR","","","http://en.wikipedia.org/wiki/Brandon_Airport",""
1679,"CYBT","medium_airport","Brochet Airport",57.8894,-101.679,1136,"NA","CA","CA-MB","Brochet","yes","CYBT","YBT","","","http://en.wikipedia.org/wiki/Brochet_Airport",""
1681,"CYBV","medium_airport","Berens River Airport",52.3589,-97.0183,728,"NA","CA","CA-MB","Berens River","yes","CYBV","YBV","","","http://en.wikipedia.org/wiki/Berens_River_Airport",""
1683,"CYBX","medium_airport","Lourdes de Blanc Sablon Airport",51.4436,-57.1853,121,"NA","CA","CA-QC","Lourdes-De-Blanc-Sablon","yes","CYBX","YBX","","","http://en.wikipedia.org/wiki/Lourdes-de-Blanc-Sablon_Airport",""
1684,"CYCA","medium_airport","Cartwright Airport",53.6828,-57.0419,40,"NA","CA","CA-NL","Cartwright","yes","CYCA","YRF","","","http://en.wikipedia.org/wiki/Cartwright_Airport","YCA"
1685,"CYCB","medium_airport","Cambridge Bay Airport",69.1081,-105.138,90,"NA","CA","CA-NU","Cambridge Bay","yes","CYCB","YCB","","","http://en.wikipedia.org/wiki/Cambridge_Bay_Airport",""
1686,"CYCC","medium_airport","Cornwall Regional Airport",45.0928,-74.5633,175,"NA","CA","CA-ON","Cornwall","no","CYCC","YCC","","","http://en.wikipedia.org/wiki/Cornwall_Regional_Airport",""
1687,"CYCD","medium_airport","Nanaimo Airport",49.055,-123.87,92,"NA","CA","CA-BC","Nanaimo","yes","CYCD","YCD","","","http://en.wikipedia.org/wiki/Nanaimo_Airport",""
1688,"CYCE","medium_airport","Centralia / James T. Field Memorial Aerodrome",43.2856,-81.5083,824,"NA","CA","CA-ON","Centralia","no","CYCE","YCE","CYCE","","http://en.wikipedia.org/wiki/Centralia/Huron_Airpark","RCAF Station Centralia, Huron Airpark"
1689,"CYCG","medium_airport","Castlegar/West Kootenay Regional Airport",49.2964,-117.632,1624,"NA","CA","CA-BC","Castlegar","yes","CYCG","YCG","","","http://en.wikipedia.org/wiki/Castlegar_Airport",""
1690,"CYCH","medium_airport","Miramichi Airport",47.0078,-65.4492,108,"NA","CA","CA-NB","Miramichi","yes","CYCH","YCH","","","http://en.wikipedia.org/wiki/Miramichi_Airport","CFB Chatham, RCAF Station Chatham"
1691,"CYCL","medium_airport","Charlo Airport",47.9908,-66.3303,132,"NA","CA","CA-NB","Charlo","yes","CYCL","YCL","","","http://en.wikipedia.org/wiki/Charlo_Airport",""
1692,"CYCN","medium_airport","Cochrane Airport",49.1056,-81.0136,861,"NA","CA","CA-ON","Cochrane","no","CYCN","YCN","","","http://en.wikipedia.org/wiki/Cochrane_Airport",""
1693,"CYCO","medium_airport","Kugluktuk Airport",67.8167,-115.144,74,"NA","CA","CA-NU","Kugluktuk","yes","CYCO","YCO","","","http://en.wikipedia.org/wiki/Kugluktuk_Airport","Copper Mine Airport"
1695,"CYCQ","medium_airport","Chetwynd Airport",55.6872,-121.627,2000,"NA","CA","CA-BC","Chetwynd","no","CYCQ","YCQ","","","http://en.wikipedia.org/wiki/Chetwynd_Airport",""
1696,"CYCR","medium_airport","Cross Lake (Charlie Sinclair Memorial) Airport",54.6106,-97.7608,709,"NA","CA","CA-MB","Cross Lake","no","CYCR","YCR","","","http://en.wikipedia.org/wiki/Cross_Lake_(Charlie_Sinclair_Memorial)_Airport",""
1697,"CYCS","medium_airport","Chesterfield Inlet Airport",63.3469,-90.7311,32,"NA","CA","CA-NU","Chesterfield Inlet","yes","CYCS","YCS","","","http://en.wikipedia.org/wiki/Chesterfield_Inlet_Airport",""
1701,"CYCY","medium_airport","Clyde River Airport",70.4861,-68.5167,87,"NA","CA","CA-NU","Clyde River","yes","CYCY","YCY","","","http://en.wikipedia.org/wiki/Clyde_River_Airport",""
1703,"CYDA","medium_airport","Dawson City Airport",64.0431,-139.128,1215,"NA","CA","CA-YT","Dawson City","yes","CYDA","YDA","","","http://en.wikipedia.org/wiki/Dawson_City_Airport",""
1704,"CYDB","medium_airport","Burwash Airport",61.3711,-139.041,2647,"NA","CA","CA-YT","Burwash","no","CYDB","YDB","","","http://en.wikipedia.org/wiki/Burwash_Airport",""
1706,"CYDF","medium_airport","Deer Lake Airport",49.2108,-57.3914,72,"NA","CA","CA-NL","Deer Lake","yes","CYDF","YDF","","","http://en.wikipedia.org/wiki/Deer_Lake_Airport_(Newfoundland)",""
1709,"CYDM","medium_airport","Ross River Airport",61.9706,-132.423,2314,"NA","CA","CA-YT","Ross River","no","CYDM","XRR","YDM","","http://en.wikipedia.org/wiki/Ross_River_Airport",""
1710,"CYDN","medium_airport","Dauphin Barker Airport",51.1008,-100.052,999,"NA","CA","CA-MB","Dauphin","yes","CYDN","YDN","","","http://en.wikipedia.org/wiki/Dauphin_(Lt._Col_W.G._(Billy)_Barker_VC_Airport)",""
1711,"CYDO","medium_airport","Dolbeau St Felicien Airport",48.7785,-72.375,372,"NA","CA","CA-QC","Dolbeau-St-Félicien","no","CYDO","YDO","","","http://en.wikipedia.org/wiki/Dolbeau-St-F%C3%A9licien_Airport","Dolbeau St Methode"
1712,"CYDP","medium_airport","Nain Airport",56.5492,-61.6803,22,"NA","CA","CA-NL","Nain","yes","CYDP","YDP","","","http://en.wikipedia.org/wiki/Nain_Airport",""
1713,"CYDQ","medium_airport","Dawson Creek Airport",55.7423,-120.183,2148,"NA","CA","CA-BC","Dawson Creek","yes","CYDQ","YDQ","","","http://en.wikipedia.org/wiki/Dawson_Creek_Airport",""
1717,"CYEG","large_airport","Edmonton International Airport",53.3097,-113.58,2373,"NA","CA","CA-AB","Edmonton","yes","CYEG","YEG","CYEG","http://www.edmontonairports.com/","http://en.wikipedia.org/wiki/Edmonton_International_Airport","YEA"
1718,"CYEK","medium_airport","Arviat Airport",61.0942,-94.0708,32,"NA","CA","CA-NU","Arviat","yes","CYEK","YEK","","","http://en.wikipedia.org/wiki/Arviat_Airport",""
1719,"CYEL","medium_airport","Elliot Lake Municipal Airport",46.3514,-82.5614,1087,"NA","CA","CA-ON","Elliot Lake","no","CYEL","YEL","","http://cyelont.tripod.com/cyel/","http://en.wikipedia.org/wiki/Elliot_Lake_Municipal_Airport",""
1720,"CYEM","medium_airport","Manitoulin East Municipal Airport",45.8428,-81.8581,869,"NA","CA","CA-ON","Manitowaning","no","CYEM","YEM","","","http://en.wikipedia.org/wiki/Manitowaning/Manitoulin_East_Municipal_Airport",""
1721,"CYEN","medium_airport","Estevan Airport",49.2103,-102.966,1905,"NA","CA","CA-SK","Estevan","no","CYEN","YEN","","","http://en.wikipedia.org/wiki/Estevan_Regional_Aerodrome","YEN"
1724,"CYET","medium_airport","Edson Airport",53.5789,-116.465,3043,"NA","CA","CA-AB","Edson","no","CYET","YET","","","http://en.wikipedia.org/wiki/Edson_Airport",""
1726,"CYEV","medium_airport","Inuvik Mike Zubko Airport",68.3042,-133.483,224,"NA","CA","CA-NT","Inuvik","yes","CYEV","YEV","","","http://en.wikipedia.org/wiki/Inuvik_(Mike_Zubko)_Airport",""
1727,"CYEY","medium_airport","Amos/Magny Airport",48.5639,-78.2497,1068,"NA","CA","CA-QC","Amos","no","CYEY","YEY","","","http://en.wikipedia.org/wiki/Amos/Magny_Airport",""
1729,"CYFB","medium_airport","Iqaluit Airport",63.7564,-68.5558,110,"NA","CA","CA-NU","Iqaluit","yes","CYFB","YFB","","","http://en.wikipedia.org/wiki/Iqaluit_Airport","Frobisher Bay Air Base"
1730,"CYFC","medium_airport","Fredericton Airport",45.8689,-66.5372,68,"NA","CA","CA-NB","Fredericton","yes","CYFC","YFC","","","http://en.wikipedia.org/wiki/Greater_Fredericton_Airport",""
1732,"CYFE","medium_airport","Forestville Airport",48.7461,-69.0972,293,"NA","CA","CA-QC","Forestville","no","CYFE","YFE","","","http://en.wikipedia.org/wiki/Forestville_Airport",""
1734,"CYFJ","medium_airport","La Macaza / Mont-Tremblant International Inc Airport",46.4094,-74.78,827,"NA","CA","CA-QC","Rivière Rouge","no","CYFJ","YTM","","http://www.mtia.ca/","http://en.wikipedia.org/wiki/Rivi%C3%A8re_Rouge/Mont-Tremblant_International_Inc_Airport","YFJ, CYTM"
1735,"CYFO","medium_airport","Flin Flon Airport",54.6781,-101.682,997,"NA","CA","CA-MB","Flin Flon","yes","CYFO","YFO","","","http://en.wikipedia.org/wiki/Flin_Flon_Airport",""
1738,"CYFT","medium_airport","Makkovik Airport",55.0769,-59.1864,234,"NA","CA","CA-NL","Makkovik","yes","CYFT","YMN","","","http://en.wikipedia.org/wiki/Makkovik_Airport","YFT"
1739,"CYGB","medium_airport","Texada Gillies Bay Airport",49.6942,-124.518,326,"NA","CA","CA-BC","Texada","yes","CYGB","YGB","","","http://en.wikipedia.org/wiki/Texada/Gillies_Bay_Airport",""
1743,"CYGK","medium_airport","Kingston Norman Rogers Airport",44.2253,-76.5969,305,"NA","CA","CA-ON","Kingston","yes","CYGK","YGK","","http://www.cityofkingston.ca/residents/transportation/airport/index.asp","http://en.wikipedia.org/wiki/Kingston/Norman_Rogers_Airport",""
1744,"CYGL","medium_airport","La Grande Rivière Airport",53.6253,-77.7042,639,"NA","CA","CA-QC","La Grande Rivière","yes","CYGL","YGL","","","http://en.wikipedia.org/wiki/La_Grande_Rivi%C3%A8re_Airport",""
1745,"CYGM","medium_airport","Gimli Industrial Park Airport",50.6281,-97.0433,753,"NA","CA","CA-MB","Gimli","no","CYGM","YGM","","","http://en.wikipedia.org/wiki/Gimli_Industrial_Park_Airport",""
1746,"CYGO","medium_airport","Gods Lake Narrows Airport",54.5589,-94.4914,617,"NA","CA","CA-MB","Gods Lake Narrows","yes","CYGO","YGO","","","http://en.wikipedia.org/wiki/Gods_Lake_Narrows_Airport",""
1747,"CYGP","medium_airport","Gaspé (Michel-Pouliot) Airport",48.7753,-64.4786,112,"NA","CA","CA-QC","Gaspé","yes","CYGP","YGP","","","http://en.wikipedia.org/wiki/Gasp%C3%A9_Airport",""
1748,"CYGQ","medium_airport","Geraldton Greenstone Regional Airport",49.7783,-86.9394,1144,"NA","CA","CA-ON","Geraldton","no","CYGQ","YGQ","","","http://en.wikipedia.org/wiki/Geraldton_(Greenstone_Regional)_Airport",""
1749,"CYGR","medium_airport","Îles-de-la-Madeleine Airport",47.4247,-61.7781,35,"NA","CA","CA-QC","Îles-de-la-Madeleine","yes","CYGR","YGR","","","http://en.wikipedia.org/wiki/%C3%8Eles-de-la-Madeleine_Airport",""
1750,"CYGT","medium_airport","Igloolik Airport",69.3647,-81.8161,174,"NA","CA","CA-NU","Igloolik","yes","CYGT","YGT","","","http://en.wikipedia.org/wiki/Igloolik_Airport",""
1751,"CYGV","medium_airport","Havre St Pierre Airport",50.2819,-63.6114,124,"NA","CA","CA-QC","Havre St-Pierre","no","CYGV","YGV","","","http://en.wikipedia.org/wiki/Havre_St-Pierre_Airport",""
1752,"CYGW","medium_airport","Kuujjuarapik Airport",55.2819,-77.7653,34,"NA","CA","CA-QC","Kuujjuarapik","yes","CYGW","YGW","","","http://en.wikipedia.org/wiki/Kuujjuarapik_Airport",""
1753,"CYGX","medium_airport","Gillam Airport",56.3575,-94.7106,476,"NA","CA","CA-MB","Gillam","yes","CYGX","YGX","","","http://en.wikipedia.org/wiki/Gillam_Airport",""
1754,"CYGZ","medium_airport","Grise Fiord Airport",76.4261,-82.9092,146,"NA","CA","CA-NU","Grise Fiord","yes","CYGZ","YGZ","","","http://en.wikipedia.org/wiki/Grise_Fiord_Airport",""
1755,"CYHA","medium_airport","Quaqtaq Airport",61.0464,-69.6178,103,"NA","CA","CA-QC","Quaqtaq","yes","CYHA","YQC","","","http://en.wikipedia.org/wiki/Quaqtaq_Airport","YHA"
1757,"CYHD","medium_airport","Dryden Regional Airport",49.8317,-92.7442,1354,"NA","CA","CA-ON","Dryden","yes","CYHD","YHD","","","http://en.wikipedia.org/wiki/Dryden_Regional_Airport",""
1758,"CYHE","medium_airport","Hope Airport",49.3683,-121.498,128,"NA","CA","CA-BC","Hope","no","CYHE","YHE","","","http://en.wikipedia.org/wiki/Hope_Aerodrome","YHE"
1759,"CYHF","medium_airport","Hearst René Fontaine Municipal Airport",49.7142,-83.6861,827,"NA","CA","CA-ON","Hearst","no","CYHF","YHF","","","http://en.wikipedia.org/wiki/Hearst_(Ren%C3%A9_Fontaine)_Municipal_Airport",""
1760,"CYHH","medium_airport","Nemiscau Airport",51.6911,-76.1356,802,"NA","CA","CA-QC","Nemiscau","yes","CYHH","YNS","","","http://en.wikipedia.org/wiki/Nemiscau_Airport","YHH"
1761,"CYHI","medium_airport","Ulukhaktok Holman Airport",70.7628,-117.806,117,"NA","CA","CA-NT","Ulukhaktok","yes","CYHI","YHI","","","http://en.wikipedia.org/wiki/Ulukhaktok/Holman_Airport",""
1762,"CYHK","medium_airport","Gjoa Haven Airport",68.6356,-95.8497,152,"NA","CA","CA-NU","Gjoa Haven","yes","CYHK","YHK","","","http://en.wikipedia.org/wiki/Gjoa_Haven_Airport",""
1763,"CYHM","medium_airport","John C. Munro Hamilton International Airport",43.1736,-79.935,780,"NA","CA","CA-ON","Hamilton","yes","CYHM","YHM","","http://www.flyhi.ca/","http://en.wikipedia.org/wiki/Hamilton/John_C._Munro_International_Airport","Mount Hope Airport"
1764,"CYHN","medium_airport","Hornepayne Municipal Airport",49.1931,-84.7589,1099,"NA","CA","CA-ON","Hornepayne","no","CYHN","YHN","","","http://en.wikipedia.org/wiki/Hornepayne_Municipal_Airport",""
1765,"CYHO","medium_airport","Hopedale Airport",55.4483,-60.2286,39,"NA","CA","CA-NL","Hopedale","yes","CYHO","YHO","","","http://en.wikipedia.org/wiki/Hopedale_Airport",""
1766,"CYHR","medium_airport","Chevery Airport",50.4689,-59.6367,39,"NA","CA","CA-QC","Chevery","yes","CYHR","YHR","","","http://en.wikipedia.org/wiki/Chevery_Airport",""
1767,"CYHT","medium_airport","Haines Junction Airport",60.7892,-137.546,2150,"NA","CA","CA-YT","Haines Junction","no","CYHT","YHT","","","http://en.wikipedia.org/wiki/Haines_Junction_Airport",""
1768,"CYHU","medium_airport","Montréal / Saint-Hubert Airport",45.5175,-73.4169,90,"NA","CA","CA-QC","Montréal","yes","CYHU","YHU","","http://www.dashl.ca/","http://en.wikipedia.org/wiki/Montr%C3%A9al/St-Hubert_Airport",""
1769,"CYHY","medium_airport","Hay River / Merlyn Carter Airport",60.8397,-115.783,541,"NA","CA","CA-NT","Hay River","yes","CYHY","YHY","","","http://en.wikipedia.org/wiki/Hay_River_Airport",""
1770,"CYHZ","large_airport","Halifax / Stanfield International Airport",44.8808,-63.5086,477,"NA","CA","CA-NS","Halifax","yes","CYHZ","YHZ","","http://www.hiaa.ca/","http://en.wikipedia.org/wiki/Halifax_International_Airport","Robert L. Stanfield International Airport"
1771,"CYIB","medium_airport","Atikokan Municipal Airport",48.7739,-91.6386,1408,"NA","CA","CA-ON","Atikokan","no","CYIB","YIB","","http://www.atikokaninfo.com/community/transportation/airport/","http://en.wikipedia.org/wiki/Atikokan_Municipal_Airport",""
1772,"CYID","medium_airport","Digby / Annapolis Regional Airport",44.5458,-65.7854,499,"NA","CA","CA-NS","Digby","no","CYID","YDG","","","http://en.wikipedia.org/wiki/Digby_Airport","YID"
1773,"CYIF","medium_airport","St Augustin Airport",51.2117,-58.6583,20,"NA","CA","CA-QC","St-Augustin","no","CYIF","YIF","","","http://en.wikipedia.org/wiki/St-Augustin_Airport","Pakuashipi Airport"
1774,"CYIK","medium_airport","Ivujivik Airport",62.4173,-77.9253,126,"NA","CA","CA-QC","Ivujivik","yes","CYIK","YIK","","","http://en.wikipedia.org/wiki/Ivujivik_Airport",""
1775,"CYIO","medium_airport","Pond Inlet Airport",72.6833,-77.9667,181,"NA","CA","CA-NU","Pond Inlet","yes","CYIO","YIO","","","http://en.wikipedia.org/wiki/Pond_Inlet_Airport",""
1776,"CYIV","medium_airport","Island Lake Airport",53.8572,-94.6536,770,"NA","CA","CA-MB","Island Lake","yes","CYIV","YIV","","","http://en.wikipedia.org/wiki/Island_Lake_Airport",""
1780,"CYJN","medium_airport","St Jean Airport",45.2944,-73.2811,136,"NA","CA","CA-QC","St Jean","no","CYJN","YJN","","","http://en.wikipedia.org/wiki/St-Jean_Airport",""
1783,"CYJT","medium_airport","Stephenville Airport",48.5442,-58.55,84,"NA","CA","CA-NL","Stephenville","yes","CYJT","YJT","","","http://en.wikipedia.org/wiki/Stephenville_Airport",""
1784,"CYKA","medium_airport","Kamloops Airport",50.7022,-120.444,1133,"NA","CA","CA-BC","Kamloops","yes","CYKA","YKA","","","http://en.wikipedia.org/wiki/Kamloops_Airport",""
1786,"CYKD","medium_airport","Aklavik/Freddie Carmichael Airport",68.2233,-135.006,23,"NA","CA","CA-NT","Aklavik","yes","CYKD","LAK","","","http://en.wikipedia.org/wiki/Aklavik_Airport","YKD"
1787,"CYKF","medium_airport","Waterloo Airport",43.4608,-80.3786,1055,"NA","CA","CA-ON","Kitchener","yes","CYKF","YKF","","http://www.waterlooairport.ca/","http://en.wikipedia.org/wiki/Region_of_Waterloo_International_Airport","Kitchener, Cambridge, YFK"
1788,"CYKG","medium_airport","Kangiqsujuaq (Wakeham Bay) Airport",61.5886,-71.9294,501,"NA","CA","CA-QC","Kangiqsujuaq","yes","CYKG","YWB","","","http://en.wikipedia.org/wiki/Kangiqsujuaq_(Wakeham_Bay)_Airport","YKG"
1789,"CYKJ","medium_airport","Key Lake Airport",57.2561,-105.618,1679,"NA","CA","CA-SK","Key Lake","no","CYKJ","YKJ","","","http://en.wikipedia.org/wiki/Key_Lake_Airport",""
1790,"CYKL","medium_airport","Schefferville Airport",54.8053,-66.8053,1709,"NA","CA","CA-QC","Schefferville","yes","CYKL","YKL","","","http://en.wikipedia.org/wiki/Schefferville_Airport",""
1791,"CYKO","medium_airport","Akulivik Airport",60.8186,-78.1486,75,"NA","CA","CA-QC","Akulivik","yes","CYKO","AKV","","","http://en.wikipedia.org/wiki/Akulivik_Airport","YKO"
1792,"CYKQ","medium_airport","Waskaganish Airport",51.4733,-78.7583,80,"NA","CA","CA-QC","Waskaganish","yes","CYKQ","YKQ","","","http://en.wikipedia.org/wiki/Waskaganish_Airport",""
1793,"CYKX","medium_airport","Kirkland Lake Airport",48.2103,-79.9814,1157,"NA","CA","CA-ON","Kirkland Lake","no","CYKX","YKX","","","http://en.wikipedia.org/wiki/Kirkland_Lake_Airport",""
1794,"CYKY","medium_airport","Kindersley Airport",51.5175,-109.181,2277,"NA","CA","CA-SK","Kindersley","no","CYKY","YKY","YKY","","http://en.wikipedia.org/wiki/Kindersley_Airport","YKY"
1795,"CYKZ","medium_airport","Buttonville Municipal Airport",43.8622,-79.37,650,"NA","CA","CA-ON","Toronto","no","CYKZ","YKZ","","http://www.torontoairways.com/","http://en.wikipedia.org/wiki/Toronto/Buttonville_Municipal_Airport","YTO"
1796,"CYLA","medium_airport","Aupaluk Airport",59.2967,-69.5997,119,"NA","CA","CA-QC","Aupaluk","yes","CYLA","YPJ","","","http://en.wikipedia.org/wiki/Aupaluk_Airport","YLA"
1798,"CYLC","medium_airport","Kimmirut Airport",62.85,-69.8833,175,"NA","CA","CA-NU","Kimmirut","yes","CYLC","YLC","","","http://en.wikipedia.org/wiki/Kimmirut_Airport",""
1799,"CYLD","medium_airport","Chapleau Airport",47.82,-83.3467,1470,"NA","CA","CA-ON","Chapleau","no","CYLD","YLD","","","http://en.wikipedia.org/wiki/Chapleau_Airport",""
1800,"CYLH","medium_airport","Lansdowne House Airport",52.1956,-87.9342,834,"NA","CA","CA-ON","Lansdowne House","yes","CYLH","YLH","","","http://en.wikipedia.org/wiki/Lansdowne_House_Airport",""
1801,"CYLJ","medium_airport","Meadow Lake Airport",54.1253,-108.523,1576,"NA","CA","CA-SK","Meadow Lake","no","CYLJ","YLJ","","","http://en.wikipedia.org/wiki/Meadow_Lake_Airport",""
1802,"CYLK","medium_airport","Lutselk'e Airport",62.4183,-110.682,596,"NA","CA","CA-NT","Lutselk'e","yes","CYLK","YSG","","","http://en.wikipedia.org/wiki/Lutselk'e_Airport","YLK, EL3, Snowdrift Airport"
1803,"CYLL","medium_airport","Lloydminster Airport",53.3092,-110.073,2193,"NA","CA","CA-AB","Lloydminster","yes","CYLL","YLL","","","http://en.wikipedia.org/wiki/Lloydminster_Airport",""
1805,"CYLR","medium_airport","Leaf Rapids Airport",56.5133,-99.9853,959,"NA","CA","CA-MB","Leaf Rapids","no","CYLR","YLR","","","http://en.wikipedia.org/wiki/Leaf_Rapids_Airport",""
1806,"CYLT","medium_airport","Alert Airport",82.5178,-62.2806,100,"NA","CA","CA-NU","Alert","no","CYLT","YLT","","","http://en.wikipedia.org/wiki/Alert_Airport","YLT"
1807,"CYLU","medium_airport","Kangiqsualujjuaq (Georges River) Airport",58.7114,-65.9928,215,"NA","CA","CA-QC","Kangiqsualujjuaq","yes","CYLU","XGR","","","http://en.wikipedia.org/wiki/Kangiqsualujjuaq_(Georges_River)_Airport","YLU"
1808,"CYLW","medium_airport","Kelowna International Airport",49.9561,-119.378,1421,"NA","CA","CA-BC","Kelowna","yes","CYLW","YLW","","http://www.kelowna.ca/CM/Page68.aspx","http://en.wikipedia.org/wiki/Kelowna_International_Airport","Kelowna, Okanagan"
1809,"CYMA","medium_airport","Mayo Airport",63.6164,-135.868,1653,"NA","CA","CA-YT","Mayo","no","CYMA","YMA","","","http://en.wikipedia.org/wiki/Mayo_Airport",""
1810,"CYME","medium_airport","Matane Airport",48.8569,-67.4533,102,"NA","CA","CA-QC","Matane","no","CYME","YME","","","http://en.wikipedia.org/wiki/Matane_Airport",""
1811,"CYMG","medium_airport","Manitouwadge Airport",49.0839,-85.8606,1198,"NA","CA","CA-ON","Manitouwadge","no","CYMG","YMG","","","http://en.wikipedia.org/wiki/Manitouwadge_Airport",""
1812,"CYMH","medium_airport","Mary's Harbour Airport",52.3028,-55.8472,38,"NA","CA","CA-NL","Mary's Harbour","yes","CYMH","YMH","","","http://en.wikipedia.org/wiki/Mary's_Harbour_Airport",""
1813,"CYMJ","medium_airport","Moose Jaw Air Vice Marshal C. M. McEwen Airport",50.3303,-105.559,1892,"NA","CA","CA-SK","Moose Jaw","no","CYMJ","YMJ","","","http://en.wikipedia.org/wiki/Moose_Jaw/Air_Vice_Marshal_C.M._McEwen_Airport","CFB Moose Jaw"
1814,"CYML","medium_airport","Charlevoix Airport",47.5975,-70.2239,977,"NA","CA","CA-QC","Charlevoix","no","CYML","YML","","","http://en.wikipedia.org/wiki/Charlevoix_Airport",""
1816,"CYMO","medium_airport","Moosonee Airport",51.2911,-80.6078,30,"NA","CA","CA-ON","Moosonee","yes","CYMO","YMO","","","http://en.wikipedia.org/wiki/Moosonee_Airport",""
1817,"CYMT","medium_airport","Chapais Airport",49.7719,-74.5281,1270,"NA","CA","CA-QC","Chibougamau","yes","CYMT","YMT","","","http://en.wikipedia.org/wiki/Chibougamau/Chapais_Airport",""
1818,"CYMU","medium_airport","Umiujaq Airport",56.5361,-76.5183,250,"NA","CA","CA-QC","Umiujaq","yes","CYMU","YUD","","","http://en.wikipedia.org/wiki/Umiujaq_Airport","YMU"
1820,"CYMX","medium_airport","Montreal International (Mirabel) Airport",45.6795,-74.0387,270,"NA","CA","CA-QC","Montréal","no","CYMX","YMX","","","http://en.wikipedia.org/wiki/Montr%C3%A9al-Mirabel_International_Airport","YMQ"
1822,"CYNA","medium_airport","Natashquan Airport",50.19,-61.7892,39,"NA","CA","CA-QC","Natashquan","yes","CYNA","YNA","","","http://en.wikipedia.org/wiki/Natashquan_Airport",""
1823,"CYNC","medium_airport","Wemindji Airport",53.0106,-78.8311,66,"NA","CA","CA-QC","Wemindji","yes","CYNC","YNC","","","http://en.wikipedia.org/wiki/Wemindji_Airport",""
1824,"CYND","medium_airport","Ottawa / Gatineau Airport",45.5217,-75.5636,211,"NA","CA","CA-QC","Gatineau","no","CYND","YND","CYND","http://www.ego-airport.ca/english/propos_ego/","http://en.wikipedia.org/wiki/Ottawa-Gatineau_Airport","YND"
1825,"CYNE","medium_airport","Norway House Airport",53.9583,-97.8442,734,"NA","CA","CA-MB","Norway House","yes","CYNE","YNE","","","http://en.wikipedia.org/wiki/Norway_House_Airport",""
1828,"CYNL","medium_airport","Points North Landing Airport",58.2767,-104.082,1605,"NA","CA","CA-SK","Points North Landing","yes","CYNL","YNL","","","http://en.wikipedia.org/wiki/Points_North_Landing_Airport",""
1829,"CYNM","medium_airport","Matagami Airport",49.7617,-77.8028,918,"NA","CA","CA-QC","Matagami","no","CYNM","YNM","","","http://en.wikipedia.org/wiki/Matagami_Airport",""
1832,"CYOA","medium_airport","Ekati Airport",64.6989,-110.615,1536,"NA","CA","CA-NT","Ekati","no","CYOA","YOA","","","http://en.wikipedia.org/wiki/Ekati_Airport","YOA"
1833,"CYOC","medium_airport","Old Crow Airport",67.5706,-139.839,824,"NA","CA","CA-YT","Old Crow","yes","CYOC","YOC","","","http://en.wikipedia.org/wiki/Old_Crow_Airport",""
1834,"CYOD","medium_airport","CFB Cold Lake",54.405,-110.279,1775,"NA","CA","CA-AB","Cold Lake","no","CYOD","YOD","","","http://en.wikipedia.org/wiki/CFB_Cold_Lake",""
1835,"CYOH","medium_airport","Oxford House Airport",54.9333,-95.2789,663,"NA","CA","CA-MB","Oxford House","yes","CYOH","YOH","","","http://en.wikipedia.org/wiki/Oxford_House_Airport",""
1836,"CYOJ","medium_airport","High Level Airport",58.6214,-117.165,1110,"NA","CA","CA-AB","High Level","yes","CYOJ","YOJ","","","http://en.wikipedia.org/wiki/High_Level_Airport",""
1837,"CYOO","medium_airport","Toronto/Oshawa Executive Airport",43.9228,-78.895,460,"NA","CA","CA-ON","Oshawa","no","CYOO","YOO","CYOO","http://www.oshawa-airport.com/","http://en.wikipedia.org/wiki/Oshawa_Airport",""
1838,"CYOP","medium_airport","Rainbow Lake Airport",58.4914,-119.408,1759,"NA","CA","CA-AB","Rainbow Lake","yes","CYOP","YOP","","","http://en.wikipedia.org/wiki/Rainbow_Lake_Airport",""
1839,"CYOS","medium_airport","Owen Sound / Billy Bishop Regional Airport",44.5903,-80.8375,1007,"NA","CA","CA-ON","Owen Sound","no","CYOS","YOS","","","http://en.wikipedia.org/wiki/Owen_Sound/Billy_Bishop_Regional_Airport","YOS"
1840,"CYOW","large_airport","Ottawa Macdonald-Cartier International Airport",45.3225,-75.6692,374,"NA","CA","CA-ON","Ottawa","yes","CYOW","YOW","YOW","http://www.ottawa-airport.ca/","http://en.wikipedia.org/wiki/Ottawa_Macdonald-Cartier_International_Airport","Uplands, UUP, CUUP"
1842,"CYPA","medium_airport","Prince Albert Glass Field",53.2142,-105.673,1405,"NA","CA","CA-SK","Prince Albert","yes","CYPA","YPA","","","http://en.wikipedia.org/wiki/Prince_Albert_(Glass_Field)_Airport",""
1843,"CYPC","medium_airport","Paulatuk (Nora Aliqatchialuk Ruben) Airport",69.3608,-124.075,15,"NA","CA","CA-NT","Paulatuk","yes","CYPC","YPC","","","http://en.wikipedia.org/wiki/Paulatuk_Airport",""
1844,"CYPD","medium_airport","Port Hawkesbury Airport",45.6567,-61.3681,377,"NA","CA","CA-NS","Port Hawkesbury","no","CYPD","YPS","","http://www.porthawkesburyairport.com/","http://en.wikipedia.org/wiki/Port_Hawkesbury_Airport","YPD"
1845,"CYPE","medium_airport","Peace River Airport",56.2269,-117.447,1873,"NA","CA","CA-AB","Peace River","yes","CYPE","YPE","","","http://en.wikipedia.org/wiki/Peace_River_Airport",""
1846,"CYPG","medium_airport","Southport Airport",49.9031,-98.2738,885,"NA","CA","CA-MB","Portage la Prairie","no","CYPG","YPG","","http://southport.ca/","http://en.wikipedia.org/wiki/Portage_La_Prairie/Southport_Airport",""
1847,"CYPH","medium_airport","Inukjuak Airport",58.4719,-78.0769,83,"NA","CA","CA-QC","Inukjuak","yes","CYPH","YPH","","","http://en.wikipedia.org/wiki/Inukjuak_Airport",""
1849,"CYPL","medium_airport","Pickle Lake Airport",51.4464,-90.2142,1267,"NA","CA","CA-ON","Pickle Lake","yes","CYPL","YPL","","","http://en.wikipedia.org/wiki/Pickle_Lake_Airport",""
1850,"CYPM","medium_airport","Pikangikum Airport",51.8197,-93.9733,1114,"NA","CA","CA-ON","Pikangikum","yes","CYPM","YPM","","","http://en.wikipedia.org/wiki/Pikangikum_Airport",""
1851,"CYPN","medium_airport","Port Menier Airport",49.8364,-64.2886,167,"NA","CA","CA-QC","Port-Menier","no","CYPN","YPN","","","http://en.wikipedia.org/wiki/Port-Menier_Airport",""
1852,"CYPO","medium_airport","Peawanuck Airport",54.9881,-85.4433,173,"NA","CA","CA-ON","Peawanuck","yes","CYPO","YPO","","","http://en.wikipedia.org/wiki/Peawanuck_Airport",""
1854,"CYPQ","medium_airport","Peterborough Airport",44.23,-78.3633,628,"NA","CA","CA-ON","Peterborough","no","CYPQ","YPQ","","","http://en.wikipedia.org/wiki/Peterborough_Airport",""
1855,"CYPR","medium_airport","Prince Rupert Airport",54.2861,-130.445,116,"NA","CA","CA-BC","Prince Rupert","yes","CYPR","YPR","","http://www.ypr.ca/","http://en.wikipedia.org/wiki/Prince_Rupert_Airport",""
1859,"CYPW","medium_airport","Powell River Airport",49.8342,-124.5,425,"NA","CA","CA-BC","Powell River","yes","CYPW","YPW","","","http://en.wikipedia.org/wiki/Powell_River_Airport",""
1860,"CYPX","medium_airport","Puvirnituq Airport",60.0506,-77.2869,74,"NA","CA","CA-QC","Puvirnituq","no","CYPX","YPX","","","http://en.wikipedia.org/wiki/Puvirnituq_Airport",""
1863,"CYQA","medium_airport","Muskoka Airport",44.9747,-79.3033,925,"NA","CA","CA-ON","Muskoka","no","CYQA","YQA","","","http://en.wikipedia.org/wiki/Muskoka_Airport",""
1864,"CYQB","medium_airport","Quebec Jean Lesage International Airport",46.7911,-71.3933,244,"NA","CA","CA-QC","Quebec","yes","CYQB","YQB","YQB","http://www.aeroportdequebec.com/","http://en.wikipedia.org/wiki/Qu%C3%A9bec/Jean_Lesage_International_Airport","Quebec City"
1865,"CYQD","medium_airport","The Pas Airport",53.9714,-101.091,887,"NA","CA","CA-MB","The Pas","yes","CYQD","YQD","","","http://en.wikipedia.org/wiki/The_Pas_Airport",""
1866,"CYQF","medium_airport","Red Deer Regional Airport",52.1822,-113.894,2968,"NA","CA","CA-AB","Red Deer","no","CYQF","YQF","","","http://en.wikipedia.org/wiki/Red_Deer_Regional_Airport",""
1867,"CYQG","medium_airport","Windsor Airport",42.2756,-82.9556,622,"NA","CA","CA-ON","Windsor","yes","CYQG","YQG","","","http://en.wikipedia.org/wiki/Windsor_Airport",""
1868,"CYQH","medium_airport","Watson Lake Airport",60.1164,-128.822,2255,"NA","CA","CA-YT","Watson Lake","no","CYQH","YQH","","","http://en.wikipedia.org/wiki/Watson_Lake_Airport",""
1869,"CYQI","medium_airport","Yarmouth Airport",43.8269,-66.0881,141,"NA","CA","CA-NS","Yarmouth","no","CYQI","YQI","","","http://en.wikipedia.org/wiki/Yarmouth_Airport",""
1870,"CYQK","medium_airport","Kenora Airport",49.7883,-94.3631,1332,"NA","CA","CA-ON","Kenora","yes","CYQK","YQK","","","http://en.wikipedia.org/wiki/Kenora_Airport",""
1871,"CYQL","medium_airport","Lethbridge County Airport",49.6303,-112.8,3048,"NA","CA","CA-AB","Lethbridge","yes","CYQL","YQL","","","http://en.wikipedia.org/wiki/Lethbridge_County_Airport","Kenyon Field"
1872,"CYQM","medium_airport","Greater Moncton International Airport",46.1122,-64.6786,232,"NA","CA","CA-NB","Moncton","yes","CYQM","YQM","","","http://en.wikipedia.org/wiki/Greater_Moncton_International_Airport",""
1873,"CYQN","medium_airport","Nakina Airport",50.1828,-86.6964,1057,"NA","CA","CA-ON","Nakina","yes","CYQN","YQN","","","http://en.wikipedia.org/wiki/Nakina_Airport",""
1874,"CYQQ","medium_airport","Comox Airport",49.7108,-124.887,84,"NA","CA","CA-BC","Comox","yes","CYQQ","YQQ","","","http://en.wikipedia.org/wiki/CFB_Comox","CFB Comox"
1875,"CYQR","medium_airport","Regina International Airport",50.4319,-104.666,1894,"NA","CA","CA-SK","Regina","yes","CYQR","YQR","","","http://en.wikipedia.org/wiki/Regina_International_Airport","YQR, Roland J. Groome International"
1876,"CYQS","medium_airport","St Thomas Municipal Airport",42.77,-81.1108,778,"NA","CA","CA-ON","St Thomas","no","CYQS","YQS","","","http://en.wikipedia.org/wiki/St._Thomas_Airport",""
1877,"CYQT","medium_airport","Thunder Bay Airport",48.3719,-89.3239,653,"NA","CA","CA-ON","Thunder Bay","yes","CYQT","YQT","","","http://en.wikipedia.org/wiki/Thunder_Bay_International_Airport",""
1878,"CYQU","medium_airport","Grande Prairie Airport",55.1797,-118.885,2195,"NA","CA","CA-AB","Grande Prairie","yes","CYQU","YQU","","http://www.grandeprairieairport.com/","http://en.wikipedia.org/wiki/Grande_Prairie_Airport",""
1879,"CYQV","medium_airport","Yorkton Municipal Airport",51.2647,-102.462,1635,"NA","CA","CA-SK","Yorkton","no","CYQV","YQV","","","http://en.wikipedia.org/wiki/Yorkton_Municipal_Airport",""
1880,"CYQW","medium_airport","North Battleford Airport",52.7692,-108.244,1799,"NA","CA","CA-SK","North Battleford","no","CYQW","YQW","","","http://en.wikipedia.org/wiki/North_Battleford_(Cameron_McIntosh)_Airport",""
1881,"CYQX","medium_airport","Gander International Airport",48.9369,-54.5681,496,"NA","CA","CA-NL","Gander","yes","CYQX","YQX","","","http://en.wikipedia.org/wiki/Gander_International_Airport","CFB Gander"
1882,"CYQY","medium_airport","Sydney / J.A. Douglas McCurdy Airport",46.1614,-60.0478,203,"NA","CA","CA-NS","Sydney","yes","CYQY","YQY","","","http://en.wikipedia.org/wiki/Sydney_Airport_(Nova_Scotia)",""
1883,"CYQZ","medium_airport","Quesnel Airport",53.0261,-122.51,1789,"NA","CA","CA-BC","Quesnel","yes","CYQZ","YQZ","","","http://en.wikipedia.org/wiki/Quesnel_Airport",""
1884,"CYRA","medium_airport","Rae Lakes Airport",64.1161,-117.31,723,"NA","CA","CA-NT","Gamètì","yes","CYRA","YRA","","","http://en.wikipedia.org/wiki/Gam%C3%A8t%C3%AC/Rae_Lakes_Airport",""
1885,"CYRB","medium_airport","Resolute Bay Airport",74.7169,-94.9694,215,"NA","CA","CA-NU","Resolute Bay","yes","CYRB","YRB","","","http://en.wikipedia.org/wiki/Resolute_Bay_Airport",""
1887,"CYRI","medium_airport","Rivière-du-Loup Airport",47.7644,-69.5847,427,"NA","CA","CA-QC","Rivière-du-Loup","no","CYRI","YRI","","http://www.ville.riviere-du-loup.qc.ca/anglais/aeroport.php","http://en.wikipedia.org/wiki/Rivi%C3%A8re-du-Loup_Airport",""
1888,"CYRJ","medium_airport","Roberval Airport",48.52,-72.2656,586,"NA","CA","CA-QC","Roberval","yes","CYRJ","YRJ","","","http://en.wikipedia.org/wiki/Roberval_Airport",""
1889,"CYRL","medium_airport","Red Lake Airport",51.0669,-93.7931,1265,"NA","CA","CA-ON","Red Lake","yes","CYRL","YRL","","","http://en.wikipedia.org/wiki/Red_Lake_Airport",""
1891,"CYRO","medium_airport","Ottawa / Rockcliffe Airport",45.4603,-75.6461,188,"NA","CA","CA-ON","Ottawa","no","CYRO","YRO","CYRO","http://www.rfc.ca/","http://en.wikipedia.org/wiki/Ottawa/Rockcliffe_Airport","YRO"
1893,"CYRQ","medium_airport","Trois-Rivières Airport",46.3528,-72.6794,199,"NA","CA","CA-QC","Trois-Rivières","no","CYRQ","YRQ","","","http://en.wikipedia.org/wiki/Trois-Rivi%C3%A8res_Airport",""
1894,"CYRS","medium_airport","Red Sucker Lake Airport",54.1672,-93.5572,729,"NA","CA","CA-MB","Red Sucker Lake","no","CYRS","YRS","","","http://en.wikipedia.org/wiki/Red_Sucker_Lake_Airport",""
1895,"CYRT","medium_airport","Rankin Inlet Airport",62.8114,-92.1158,94,"NA","CA","CA-NU","Rankin Inlet","yes","CYRT","YRT","","","http://en.wikipedia.org/wiki/Rankin_Inlet_Airport",""
1896,"CYRV","medium_airport","Revelstoke Airport",50.9667,-118.183,1459,"NA","CA","CA-BC","Revelstoke","no","CYRV","YRV","","","http://en.wikipedia.org/wiki/Revelstoke_Airport","YRV"
1897,"CYSB","medium_airport","Sudbury Airport",46.625,-80.7989,1141,"NA","CA","CA-ON","Sudbury","yes","CYSB","YSB","","","http://en.wikipedia.org/wiki/Sudbury_Airport",""
1898,"CYSC","medium_airport","Sherbrooke Airport",45.4386,-71.6914,792,"NA","CA","CA-QC","Sherbrooke","no","CYSC","YSC","","","http://en.wikipedia.org/wiki/Sherbrooke_Airport",""
1901,"CYSF","medium_airport","Stony Rapids Airport",59.2503,-105.841,805,"NA","CA","CA-SK","Stony Rapids","yes","CYSF","YSF","","","http://en.wikipedia.org/wiki/Stony_Rapids_Airport",""
1903,"CYSH","medium_airport","Smiths Falls-Montague (Russ Beach) Airport",44.9458,-75.9406,416,"NA","CA","CA-ON","Smiths Falls","no","CYSH","YSH","","http://www.smithsfallsflyingclub.com/","http://en.wikipedia.org/wiki/Smiths_Falls-Montague_Airport","Smith Falls"
1904,"CYSJ","medium_airport","Saint John Airport",45.3161,-65.8903,357,"NA","CA","CA-NB","Saint John","yes","CYSJ","YSJ","","","http://en.wikipedia.org/wiki/Saint_John_Airport",""
1905,"CYSK","medium_airport","Sanikiluaq Airport",56.5378,-79.2467,104,"NA","CA","CA-NU","Sanikiluaq","yes","CYSK","YSK","","","http://en.wikipedia.org/wiki/Sanikiluaq_Airport",""
1906,"CYSL","medium_airport","St Leonard Airport",47.1575,-67.8347,793,"NA","CA","CA-NB","St Leonard","no","CYSL","YSL","","","http://en.wikipedia.org/wiki/St._Leonard_Airport",""
1908,"CYSN","medium_airport","Niagara District Airport",43.1917,-79.1717,321,"NA","CA","CA-ON","St Catharines","no","CYSN","YCM","","","http://en.wikipedia.org/wiki/St._Catharines/Niagara_District_Airport","YSN"
1909,"CYSP","medium_airport","Marathon Airport",48.7553,-86.3444,1035,"NA","CA","CA-ON","Marathon","no","CYSP","YSP","","","http://en.wikipedia.org/wiki/Marathon_Airport_(Canada)",""
1912,"CYST","medium_airport","St. Theresa Point Airport",53.8456,-94.8519,773,"NA","CA","CA-MB","St. Theresa Point","yes","CYST","YST","","","http://en.wikipedia.org/wiki/St._Theresa_Point_Airport",""
1913,"CYSU","medium_airport","Summerside Airport",46.4406,-63.8336,56,"NA","CA","CA-PE","Summerside","no","CYSU","YSU","","","http://en.wikipedia.org/wiki/Summerside_Airport","PEI"
1915,"CYSY","medium_airport","Sachs Harbour (David Nasogaluak Jr. Saaryuaq) Airport",71.9939,-125.243,282,"NA","CA","CA-NT","Sachs Harbour","yes","CYSY","YSY","","","http://en.wikipedia.org/wiki/Sachs_Harbour_Airport",""
1917,"CYTA","medium_airport","Pembroke Airport",45.8644,-77.2517,529,"NA","CA","CA-ON","Pembroke","no","CYTA","YTA","","http://www.flycyta.ca/","http://en.wikipedia.org/wiki/Pembroke_Airport",""
1918,"CYTE","medium_airport","Cape Dorset Airport",64.23,-76.5267,164,"NA","CA","CA-NU","Cape Dorset","yes","CYTE","YTE","","","http://en.wikipedia.org/wiki/Cape_Dorset_Airport",""
1919,"CYTF","medium_airport","Alma Airport",48.5089,-71.6419,445,"NA","CA","CA-QC","Alma","yes","CYTF","YTF","","","http://en.wikipedia.org/wiki/Alma_Airport",""
1920,"CYTH","medium_airport","Thompson Airport",55.8011,-97.8642,729,"NA","CA","CA-MB","Thompson","yes","CYTH","YTH","","","http://en.wikipedia.org/wiki/Thompson_Airport",""
1921,"CYTL","medium_airport","Big Trout Lake Airport",53.8178,-89.8969,729,"NA","CA","CA-ON","Big Trout Lake","yes","CYTL","YTL","","","http://en.wikipedia.org/wiki/Big_Trout_Lake_Airport",""
1923,"CYTQ","medium_airport","Tasiujaq Airport",58.6678,-69.9558,122,"NA","CA","CA-QC","Tasiujaq","no","CYTQ","YTQ","","","http://en.wikipedia.org/wiki/Tasiujaq_Airport",""
1924,"CYTR","medium_airport","CFB Trenton",44.1189,-77.5281,283,"NA","CA","CA-ON","Trenton","no","CYTR","YTR","","","http://en.wikipedia.org/wiki/CFB_Trenton",""
1925,"CYTS","medium_airport","Timmins/Victor M. Power",48.5697,-81.3767,967,"NA","CA","CA-ON","Timmins","yes","CYTS","YTS","","http://portal.timmins.ca/portal/en/timmins/residents/airport","http://en.wikipedia.org/wiki/Timmins_Airport","Timmins Victor M. Power Airport"
1926,"CYTZ","medium_airport","Billy Bishop Toronto City Centre Airport",43.6275,-79.3962,252,"NA","CA","CA-ON","Toronto","yes","CYTZ","YTZ","","http://www.torontoport.com/airport.aspx","http://en.wikipedia.org/wiki/Toronto_City_Centre_Airport","YTO, Toronto Island Airport"
1927,"CYUB","medium_airport","Tuktoyaktuk Airport",69.4333,-133.026,15,"NA","CA","CA-NT","Tuktoyaktuk","yes","CYUB","YUB","","","http://en.wikipedia.org/wiki/Tuktoyaktuk_Airport",""
1928,"CYUL","large_airport","Montreal / Pierre Elliott Trudeau International Airport",45.4706,-73.7408,118,"NA","CA","CA-QC","Montréal","yes","CYUL","YUL","YUL","http://www.admtl.com/passager/Home.aspx","http://en.wikipedia.org/wiki/Montr%C3%A9al-Pierre_Elliott_Trudeau_International_Airport","YMQ, Dorval Airport"
1929,"CYUT","medium_airport","Repulse Bay Airport",66.5214,-86.2247,80,"NA","CA","CA-NU","Repulse Bay","yes","CYUT","YUT","","","http://en.wikipedia.org/wiki/Repulse_Bay_Airport",""
1930,"CYUX","medium_airport","Hall Beach Airport",68.7761,-81.2425,30,"NA","CA","CA-NU","Hall Beach","yes","CYUX","YUX","","","http://en.wikipedia.org/wiki/Hall_Beach_Airport",""
1931,"CYUY","medium_airport","Rouyn Noranda Airport",48.2061,-78.8356,988,"NA","CA","CA-QC","Rouyn-Noranda","yes","CYUY","YUY","","","http://en.wikipedia.org/wiki/Rouyn-Noranda_Airport",""
1932,"CYVB","medium_airport","Bonaventure Airport",48.0711,-65.4603,123,"NA","CA","CA-QC","Bonaventure","no","CYVB","YVB","","","http://en.wikipedia.org/wiki/Bonaventure_Airport",""
1933,"CYVC","medium_airport","La Ronge Airport",55.1514,-105.262,1242,"NA","CA","CA-SK","La Ronge","yes","CYVC","YVC","","","http://en.wikipedia.org/wiki/La_Ronge_(Barber_Field)_Airport",""
1936,"CYVK","medium_airport","Vernon Airport",50.2481,-119.331,1140,"NA","CA","CA-BC","Vernon","no","CYVK","YVE","","","http://en.wikipedia.org/wiki/Vernon_Regional_Airport","YVK"
1937,"CYVM","medium_airport","Qikiqtarjuaq Airport",67.5458,-64.0314,21,"NA","CA","CA-NU","Qikiqtarjuaq","yes","CYVM","YVM","","","http://en.wikipedia.org/wiki/Qikiqtarjuaq_Airport",""
1938,"CYVO","medium_airport","Val-d'Or Airport",48.0533,-77.7828,1107,"NA","CA","CA-QC","Val-d'Or","yes","CYVO","YVO","","http://www.arvo.qc.ca/","http://en.wikipedia.org/wiki/Val-d'Or_Airport",""
1939,"CYVP","medium_airport","Kuujjuaq Airport",58.0961,-68.4269,129,"NA","CA","CA-QC","Kuujjuaq","yes","CYVP","YVP","","","http://en.wikipedia.org/wiki/Kuujjuaq_Airport",""
1940,"CYVQ","medium_airport","Norman Wells Airport",65.2816,-126.798,238,"NA","CA","CA-NT","Norman Wells","yes","CYVQ","YVQ","","","http://en.wikipedia.org/wiki/Norman_Wells_Airport",""
1941,"CYVR","large_airport","Vancouver International Airport",49.1939,-123.184,14,"NA","CA","CA-BC","Vancouver","yes","CYVR","YVR","","http://www.yvr.ca/","http://en.wikipedia.org/wiki/Vancouver_International_Airport",""
1943,"CYVV","medium_airport","Wiarton Airport",44.7458,-81.1072,729,"NA","CA","CA-ON","Wiarton","no","CYVV","YVV","","http://wiartonairport.ca/","http://en.wikipedia.org/wiki/Wiarton_Airport",""
1944,"CYVZ","medium_airport","Deer Lake Airport",52.6558,-94.0614,1092,"NA","CA","CA-ON","Deer Lake","yes","CYVZ","YVZ","","","http://en.wikipedia.org/wiki/Deer_Lake_Airport_(Ontario)",""
1945,"CYWA","medium_airport","Petawawa Airport",45.9522,-77.3192,427,"NA","CA","CA-ON","Petawawa","no","CYWA","YWA","","","http://en.wikipedia.org/wiki/Petawawa_Airport",""
1946,"CYWG","large_airport","Winnipeg / James Armstrong Richardson International Airport",49.91,-97.2399,783,"NA","CA","CA-MB","Winnipeg","yes","CYWG","YWG","YWG","http://www.waa.ca/","http://en.wikipedia.org/wiki/Winnipeg_James_Armstrong_Richardson_International_Airport","CFB Winnipeg"
1948,"CYWJ","medium_airport","Déline Airport",65.2111,-123.436,703,"NA","CA","CA-NT","Déline","yes","CYWJ","YWJ","","","http://en.wikipedia.org/wiki/Deline_Airport",""
1949,"CYWK","medium_airport","Wabush Airport",52.9219,-66.8644,1808,"NA","CA","CA-NL","Wabush","yes","CYWK","YWK","","","http://en.wikipedia.org/wiki/Wabush_Airport",""
1950,"CYWL","medium_airport","Williams Lake Airport",52.1831,-122.054,3085,"NA","CA","CA-BC","Williams Lake","yes","CYWL","YWL","","","http://en.wikipedia.org/wiki/Williams_Lake_Airport",""
1952,"CYWP","medium_airport","Webequie Airport",52.9594,-87.3749,685,"NA","CA","CA-ON","Webequie","yes","CYWP","YWP","","","http://en.wikipedia.org/wiki/Webequie_Airport",""
1954,"CYWY","medium_airport","Wrigley Airport",63.2094,-123.437,489,"NA","CA","CA-NT","Wrigley","no","CYWY","YWY","","","http://en.wikipedia.org/wiki/Wrigley_Airport",""
1955,"CYXC","medium_airport","Cranbrook/Canadian Rockies International Airport",49.6108,-115.782,3082,"NA","CA","CA-BC","Cranbrook","yes","CYXC","YXC","","","http://en.wikipedia.org/wiki/Cranbrook/Canadian_Rockies_International_Airport",""
1957,"CYXE","medium_airport","Saskatoon John G. Diefenbaker International Airport",52.1708,-106.7,1653,"NA","CA","CA-SK","Saskatoon","yes","CYXE","YXE","","","http://en.wikipedia.org/wiki/Saskatoon/John_G._Diefenbaker_International_Airport",""
1958,"CYXH","medium_airport","Medicine Hat Airport",50.0189,-110.721,2352,"NA","CA","CA-AB","Medicine Hat","yes","CYXH","YXH","","","http://en.wikipedia.org/wiki/Medicine_Hat_Airport",""
1960,"CYXK","medium_airport","Rimouski Airport",48.4781,-68.4969,82,"NA","CA","CA-QC","Rimouski","no","CYXK","YXK","","","http://en.wikipedia.org/wiki/Rimouski_Airport",""
1961,"CYXL","medium_airport","Sioux Lookout Airport",50.1139,-91.9053,1258,"NA","CA","CA-ON","Sioux Lookout","yes","CYXL","YXL","","","http://en.wikipedia.org/wiki/Sioux_Lookout_Airport",""
1962,"CYXN","medium_airport","Whale Cove Airport",62.24,-92.5981,40,"NA","CA","CA-NU","Whale Cove","yes","CYXN","YXN","","","http://en.wikipedia.org/wiki/Whale_Cove_Airport",""
1963,"CYXP","medium_airport","Pangnirtung Airport",66.145,-65.7136,75,"NA","CA","CA-NU","Pangnirtung","yes","CYXP","YXP","","","http://en.wikipedia.org/wiki/Pangnirtung_Airport",""
1964,"CYXQ","medium_airport","Beaver Creek Airport",62.4103,-140.867,2131,"NA","CA","CA-YT","Beaver Creek","no","CYXQ","YXQ","","","http://en.wikipedia.org/wiki/Beaver_Creek_Airport",""
1965,"CYXR","medium_airport","Earlton (Timiskaming Regional) Airport",47.6974,-79.8473,800,"NA","CA","CA-ON","Earlton","no","CYXR","YXR","","","http://en.wikipedia.org/wiki/Earlton_(Timiskaming_Regional)_Airport","yxr"
1966,"CYXS","medium_airport","Prince George Airport",53.8894,-122.679,2267,"NA","CA","CA-BC","Prince George","yes","CYXS","YXS","","","http://en.wikipedia.org/wiki/Prince_George_Airport",""
1967,"CYXT","medium_airport","Northwest Regional Airport Terrace-Kitimat",54.4685,-128.576,713,"NA","CA","CA-BC","Terrace","yes","CYXT","YXT","","","http://en.wikipedia.org/wiki/Terrace_Airport",""
1968,"CYXU","medium_airport","London Airport",43.0356,-81.1539,912,"NA","CA","CA-ON","London","yes","CYXU","YXU","","http://www.londonairport.on.ca/","http://en.wikipedia.org/wiki/London_International_Airport",""
1969,"CYXX","medium_airport","Abbotsford Airport",49.0253,-122.361,195,"NA","CA","CA-BC","Abbotsford","yes","CYXX","YXX","","http://www.abbotsfordairport.ca/","http://en.wikipedia.org/wiki/Abbotsford_International_Airport",""
1970,"CYXY","medium_airport","Whitehorse / Erik Nielsen International Airport",60.7096,-135.067,2317,"NA","CA","CA-YT","Whitehorse","yes","CYXY","YXY","","","http://en.wikipedia.org/wiki/Whitehorse_International_Airport",""
1971,"CYXZ","medium_airport","Wawa Airport",47.9667,-84.7867,942,"NA","CA","CA-ON","Wawa","no","CYXZ","YXZ","","","http://en.wikipedia.org/wiki/Wawa_Airport",""
1972,"CYYB","medium_airport","North Bay Airport",46.3636,-79.4228,1215,"NA","CA","CA-ON","North Bay","yes","CYYB","YYB","","http://www.northbayairport.com/jackgarland.asp","http://en.wikipedia.org/wiki/North_Bay/Jack_Garland_Airport","Jack Garland Airport, CFB North Bay"
1973,"CYYC","large_airport","Calgary International Airport",51.1139,-114.02,3557,"NA","CA","CA-AB","Calgary","yes","CYYC","YYC","","http://www.calgaryairport.com/","http://en.wikipedia.org/wiki/Calgary_International_Airport","McCall Field"
1974,"CYYD","medium_airport","Smithers Airport",54.8247,-127.183,1712,"NA","CA","CA-BC","Smithers","yes","CYYD","YYD","","","http://en.wikipedia.org/wiki/Smithers_Airport",""
1976,"CYYF","medium_airport","Penticton Airport",49.4631,-119.602,1129,"NA","CA","CA-BC","Penticton","yes","CYYF","YYF","","","http://en.wikipedia.org/wiki/Penticton_Regional_Airport",""
1977,"CYYG","medium_airport","Charlottetown Airport",46.29,-63.1211,160,"NA","CA","CA-PE","Charlottetown","yes","CYYG","YYG","","","http://en.wikipedia.org/wiki/Charlottetown_Airport","PEI"
1978,"CYYH","medium_airport","Taloyoak Airport",69.5467,-93.5767,92,"NA","CA","CA-NU","Taloyoak","yes","CYYH","YYH","","","http://en.wikipedia.org/wiki/Taloyoak_Airport",""
1979,"CYYJ","large_airport","Victoria International Airport",48.6469,-123.426,63,"NA","CA","CA-BC","Victoria","yes","CYYJ","YYJ","","http://www.victoriaairport.com/","http://en.wikipedia.org/wiki/Victoria_International_Airport",""
1980,"CYYL","medium_airport","Lynn Lake Airport",56.8639,-101.076,1170,"NA","CA","CA-MB","Lynn Lake","yes","CYYL","YYL","","","http://en.wikipedia.org/wiki/Lynn_Lake_Airport",""
1982,"CYYN","medium_airport","Swift Current Airport",50.2919,-107.691,2680,"NA","CA","CA-SK","Swift Current","no","CYYN","YYN","","http://www.swiftcurrentairport.com/","http://en.wikipedia.org/wiki/Swift_Current_Airport","YYN"
1984,"CYYQ","medium_airport","Churchill Airport",58.7392,-94.065,94,"NA","CA","CA-MB","Churchill","yes","CYYQ","YYQ","","","http://en.wikipedia.org/wiki/Churchill_Airport",""
1985,"CYYR","medium_airport","Goose Bay Airport",53.3192,-60.4258,160,"NA","CA","CA-NL","Goose Bay","yes","CYYR","YYR","","","http://en.wikipedia.org/wiki/CFB_Goose_Bay","CFB Goose Bay"
1986,"CYYT","large_airport","St. John's International Airport",47.6186,-52.7519,461,"NA","CA","CA-NL","St. John's","yes","CYYT","YYT","","http://www.stjohnsairport.com/","http://en.wikipedia.org/wiki/St._John's_International_Airport",""
1987,"CYYU","medium_airport","Kapuskasing Airport",49.4139,-82.4675,743,"NA","CA","CA-ON","Kapuskasing","yes","CYYU","YYU","","","http://en.wikipedia.org/wiki/Kapuskasing_Airport",""
1988,"CYYW","medium_airport","Armstrong Airport",50.2903,-88.9097,1058,"NA","CA","CA-ON","Armstrong","no","CYYW","YYW","","","http://en.wikipedia.org/wiki/Armstrong_Airport",""
1989,"CYYY","medium_airport","Mont Joli Airport",48.6086,-68.2081,172,"NA","CA","CA-QC","Mont-Joli","yes","CYYY","YYY","","","http://en.wikipedia.org/wiki/Mont-Joli_Airport",""
1990,"CYYZ","large_airport","Lester B. Pearson International Airport",43.6772,-79.6306,569,"NA","CA","CA-ON","Toronto","yes","CYYZ","YYZ","YYZ","http://www.gtaa.com/","http://en.wikipedia.org/wiki/Toronto_Pearson_International_Airport","YTO, Toronto International Airport, Malton"
1991,"CYZD","medium_airport","Downsview Airport",43.7425,-79.4656,652,"NA","CA","CA-ON","Toronto","no","CYZD","YZD","","","http://en.wikipedia.org/wiki/Toronto/Downsview_Airport",""
1992,"CYZE","medium_airport","Gore Bay Manitoulin Airport",45.8853,-82.5678,635,"NA","CA","CA-ON","Gore Bay","no","CYZE","YZE","","","http://en.wikipedia.org/wiki/Gore_Bay-Manitoulin_Airport",""
1993,"CYZF","medium_airport","Yellowknife Airport",62.4628,-114.44,675,"NA","CA","CA-NT","Yellowknife","yes","CYZF","YZF","","","http://en.wikipedia.org/wiki/Yellowknife_Airport",""
1994,"CYZG","medium_airport","Salluit Airport",62.1794,-75.6672,743,"NA","CA","CA-QC","Salluit","yes","CYZG","YZG","","","http://en.wikipedia.org/wiki/Salluit_Airport",""
1995,"CYZH","medium_airport","Slave Lake Airport",55.2931,-114.777,1912,"NA","CA","CA-AB","Slave Lake","no","CYZH","YZH","","http://slavelakeairport.com","http://en.wikipedia.org/wiki/Slave_Lake_Airport","YZH"
1996,"CYZP","medium_airport","Sandspit Airport",53.2543,-131.814,21,"NA","CA","CA-BC","Sandspit","yes","CYZP","YZP","","","http://en.wikipedia.org/wiki/Sandspit_Airport","Queen Charlotte Islands, Haida Gwaii"
1997,"CYZR","medium_airport","Chris Hadfield Airport",42.9994,-82.3089,594,"NA","CA","CA-ON","Sarnia","yes","CYZR","YZR","","","http://en.wikipedia.org/wiki/Sarnia_(Chris_Hadfield)_Airport",""
1998,"CYZS","medium_airport","Coral Harbour Airport",64.1933,-83.3594,210,"NA","CA","CA-NU","Coral Harbour","yes","CYZS","YZS","","","http://en.wikipedia.org/wiki/Coral_Harbour_Airport",""
1999,"CYZT","medium_airport","Port Hardy Airport",50.6806,-127.367,71,"NA","CA","CA-BC","Port Hardy","yes","CYZT","YZT","","","http://en.wikipedia.org/wiki/Port_Hardy_Airport",""
2000,"CYZU","medium_airport","Whitecourt Airport",54.1439,-115.787,2567,"NA","CA","CA-AB","Whitecourt","no","CYZU","YZU","","","http://en.wikipedia.org/wiki/Whitecourt_Airport",""
2001,"CYZV","medium_airport","Sept-Îles Airport",50.2233,-66.2656,180,"NA","CA","CA-QC","Sept-Îles","yes","CYZV","YZV","","","http://en.wikipedia.org/wiki/Sept-%C3%8Eles_Airport",""
2002,"CYZW","medium_airport","Teslin Airport",60.1728,-132.743,2313,"NA","CA","CA-YT","Teslin","no","CYZW","YZW","","","http://en.wikipedia.org/wiki/Teslin_Airport",""
2003,"CYZX","medium_airport","CFB Greenwood",44.9844,-64.9169,92,"NA","CA","CA-NS","Greenwood","no","CYZX","YZX","","","http://en.wikipedia.org/wiki/CFB_Greenwood","Greenwood Airport"
2005,"CZAC","medium_airport","York Landing Airport",56.0894,-96.0892,621,"NA","CA","CA-MB","York Landing","yes","CZAC","ZAC","","","http://en.wikipedia.org/wiki/York_Landing_Airport",""
2006,"CZAM","medium_airport","Shuswap Regional Airport",50.6828,-119.229,1751,"NA","CA","CA-BC","Salmon Arm","no","CZAM","YSN","","http://www.salmonarm.ca/index.aspx?nid=228","http://en.wikipedia.org/wiki/Salmon_Arm_Airport","AM4, Shuswap Regional Airport, Salmon Arm Airport"
2008,"CZBB","medium_airport","Boundary Bay Airport",49.0742,-123.012,6,"NA","CA","CA-BC","Vancouver","no","CZBB","YDT","","","http://en.wikipedia.org/wiki/Boundary_Bay_Airport","ZBB"
2009,"CZBD","medium_airport","Ilford Airport",56.0614,-95.6139,642,"NA","CA","CA-MB","Ilford","yes","CZBD","ILF","","","http://en.wikipedia.org/wiki/Ilford_Airport","ZBD"
2010,"CZBF","medium_airport","Bathurst Airport",47.6297,-65.7389,193,"NA","CA","CA-NB","Bathurst","yes","CZBF","ZBF","","","http://en.wikipedia.org/wiki/Bathurst_Airport_(New_Brunswick)","ZBF"
2011,"CZBM","medium_airport","Bromont (Roland Desourdy) Airport",45.2908,-72.7414,375,"NA","CA","CA-QC","Bromont","no","CZBM","ZBM","","","http://en.wikipedia.org/wiki/Bromont_Airport",""
2012,"CZEE","medium_airport","Kelsey Airport",56.0375,-96.5097,600,"NA","CA","CA-MB","Kelsey","no","CZEE","KES","ZEE","","http://en.wikipedia.org/wiki/Kelsey_Airport",""
2013,"CZEM","medium_airport","Eastmain River Airport",52.2264,-78.5225,24,"NA","CA","CA-QC","Eastmain River","yes","CZEM","ZEM","","","http://en.wikipedia.org/wiki/Eastmain_River_Airport",""
2014,"CZFA","medium_airport","Faro Airport",62.2075,-133.376,2351,"NA","CA","CA-YT","Faro","no","CZFA","ZFA","","","http://en.wikipedia.org/wiki/Faro_Airport_(Yukon)",""
2015,"CZFD","medium_airport","Fond-Du-Lac Airport",59.3344,-107.182,814,"NA","CA","CA-SK","Fond-Du-Lac","yes","CZFD","ZFD","","","http://en.wikipedia.org/wiki/Fond-du-Lac_Airport",""
2016,"CZFG","medium_airport","Pukatawagan Airport",55.7492,-101.266,958,"NA","CA","CA-MB","Pukatawagan","no","CZFG","XPK","ZFG","","http://en.wikipedia.org/wiki/Pukatawagan_Airport",""
2018,"CZFN","medium_airport","Tulita Airport",64.9097,-125.573,332,"NA","CA","CA-NT","Tulita","yes","CZFN","ZFN","","","http://en.wikipedia.org/wiki/Tulita_Airport","Fort Norman"
2019,"CZGF","medium_airport","Grand Forks Airport",49.0156,-118.431,1720,"NA","CA","CA-BC","Grand Forks","no","CZGF","ZGF","","","http://en.wikipedia.org/wiki/Grand_Forks_Airport",""
2020,"CZGI","medium_airport","Gods River Airport",54.8397,-94.0786,627,"NA","CA","CA-MB","Gods River","yes","CZGI","ZGI","","","http://en.wikipedia.org/wiki/Gods_River_Airport",""
2021,"CZGR","medium_airport","Little Grand Rapids Airport",52.0456,-95.4658,1005,"NA","CA","CA-MB","Little Grand Rapids","no","CZGR","ZGR","","","http://en.wikipedia.org/wiki/Little_Grand_Rapids_Airport",""
2023,"CZJG","medium_airport","Jenpeg Airport",54.5189,-98.0461,729,"NA","CA","CA-MB","Jenpeg","no","CZJG","ZJG","","","http://en.wikipedia.org/wiki/Jenpeg_Airport",""
2024,"CZJN","medium_airport","Swan River Airport",52.1206,-101.236,1100,"NA","CA","CA-MB","Swan River","yes","CZJN","ZJN","","","http://en.wikipedia.org/wiki/Swan_River_Airport",""
2025,"CZKE","medium_airport","Kashechewan Airport",52.2825,-81.6778,35,"NA","CA","CA-ON","Kashechewan","yes","CZKE","ZKE","","","http://en.wikipedia.org/wiki/Kashechewan_Airport",""
2026,"CZLQ","medium_airport","Thicket Portage Airport",55.3189,-97.7078,678,"NA","CA","CA-MB","Thicket Portage","no","CZLQ","YTD","","","http://en.wikipedia.org/wiki/Thicket_Portage_Airport","ZLQ"
2027,"CZMD","medium_airport","Muskrat Dam Airport",53.4414,-91.7628,911,"NA","CA","CA-ON","Muskrat Dam","yes","CZMD","MSA","","","http://en.wikipedia.org/wiki/Muskrat_Dam_Airport","ZMD"
2029,"CZMN","medium_airport","Pikwitonei Airport",55.5889,-97.1642,630,"NA","CA","CA-MB","Pikwitonei","no","CZMN","PIW","","","http://en.wikipedia.org/wiki/Pikwitonei_Airport","ZMN"
2030,"CZMT","medium_airport","Masset Airport",54.0275,-132.125,25,"NA","CA","CA-BC","Masset","yes","CZMT","ZMT","","","http://en.wikipedia.org/wiki/Masset_Airport",""
2031,"CZNG","medium_airport","Poplar River Airport",52.9965,-97.2742,728,"NA","CA","CA-MB","Poplar River","no","CZNG","XPP","","","http://en.wikipedia.org/wiki/Poplar_River_Airport",""
2033,"CZPB","medium_airport","Sachigo Lake Airport",53.8911,-92.1964,876,"NA","CA","CA-ON","Sachigo Lake","yes","CZPB","ZPB","","","http://en.wikipedia.org/wiki/Sachigo_Lake_Airport",""
2034,"CZPC","medium_airport","Pincher Creek Airport",49.5206,-113.997,3903,"NA","CA","CA-AB","Pincher Creek","no","CZPC","WPC","","","http://en.wikipedia.org/wiki/Pincher_Creek_Airport","ZPC"
2036,"CZRJ","medium_airport","Round Lake (Weagamow Lake) Airport",52.9436,-91.3128,974,"NA","CA","CA-ON","Round Lake","yes","CZRJ","ZRJ","","","http://en.wikipedia.org/wiki/Round_Lake_(Weagamow_Lake)_Airport",""
2037,"CZSJ","medium_airport","Sandy Lake Airport",53.0642,-93.3444,951,"NA","CA","CA-ON","Sandy Lake","yes","CZSJ","ZSJ","","","http://en.wikipedia.org/wiki/Sandy_Lake_Airport",""
2038,"CZSN","medium_airport","South Indian Lake Airport",56.7928,-98.9072,951,"NA","CA","CA-MB","South Indian Lake","no","CZSN","XSI","ZSN","","http://en.wikipedia.org/wiki/South_Indian_Lake_Airport",""
2039,"CZST","medium_airport","Stewart Airport",55.9354,-129.982,24,"NA","CA","CA-BC","Stewart","no","CZST","ZST","CZST","","http://en.wikipedia.org/wiki/Stewart_Airport_(British_Columbia)",""
2041,"CZTM","medium_airport","Shamattawa Airport",55.8656,-92.0814,289,"NA","CA","CA-MB","Shamattawa","yes","CZTM","ZTM","","","http://en.wikipedia.org/wiki/Shamattawa_Airport",""
2042,"CZUC","medium_airport","Ignace Municipal Airport",49.4297,-91.7178,1435,"NA","CA","CA-ON","Ignace","no","CZUC","ZUC","","","http://en.wikipedia.org/wiki/Ignace_Municipal_Airport",""
2045,"CZWH","medium_airport","Lac Brochet Airport",58.6175,-101.469,1211,"NA","CA","CA-MB","Lac Brochet","no","CZWH","XLB","ZWH","","http://en.wikipedia.org/wiki/Lac_Brochet_Airport",""
2046,"CZWL","medium_airport","Wollaston Lake Airport",58.1069,-103.172,1360,"NA","CA","CA-SK","Wollaston Lake","yes","CZWL","ZWL","","","http://en.wikipedia.org/wiki/Wollaston_Lake_Airport",""
2047,"DAAB","medium_airport","Blida Airport",36.5036,2.81417,535,"AF","DZ","DZ-09","","no","DAAB","QLD","","","http://en.wikipedia.org/wiki/Blida_Airport",""
2048,"DAAD","medium_airport","Bou Saada Airport",35.3325,4.20639,1506,"AF","DZ","DZ-28","","no","DAAD","BUJ","","","",""
2049,"DAAE","medium_airport","Soummam Airport",36.712,5.06992,20,"AF","DZ","DZ-06","Béjaïa","yes","DAAE","BJA","","","http://en.wikipedia.org/wiki/Soummam_Airport",""
2050,"DAAG","large_airport","Houari Boumediene Airport",36.691,3.21541,82,"AF","DZ","DZ-35","Algiers","yes","DAAG","ALG","","","http://en.wikipedia.org/wiki/Houari_Boumedienne_Airport",""
2051,"DAAJ","medium_airport","Djanet Inedbirene Airport",24.2928,9.45244,3176,"AF","DZ","DZ-33","Djanet","yes","DAAJ","DJG","","","http://en.wikipedia.org/wiki/Djanet_Inedbirene_Airport","Tiska Djanet Airport"
2054,"DAAP","medium_airport","Illizi Takhamalt Airport",26.7235,8.62265,1778,"AF","DZ","DZ-33","Illizi","yes","DAAP","VVZ","","","http://en.wikipedia.org/wiki/Illizi_Airport",""
2056,"DAAT","medium_airport","Aguenar – Hadj Bey Akhamok Airport",22.8115,5.45108,4518,"AF","DZ","DZ-11","Tamanrasset","yes","DAAT","TMR","","","http://en.wikipedia.org/wiki/Tamanrasset_Airport",""
2057,"DAAV","medium_airport","Jijel Ferhat Abbas Airport",36.7951,5.87361,36,"AF","DZ","DZ-18","Jijel","yes","DAAV","GJL","","","http://en.wikipedia.org/wiki/Jijel_Ferhat_Abbas_Airport",""
2058,"DAAY","medium_airport","Mecheria Airport",33.5359,-0.242353,3855,"AF","DZ","DZ-45","Mecheria","no","DAAY","MZW","","","http://fr.wikipedia.org/wiki/A%C3%A9roport_de_Mecheria",""
2060,"DABB","medium_airport","Rabah Bitat Airport",36.8222,7.80917,16,"AF","DZ","DZ-36","Annaba","yes","DABB","AAE","","","http://en.wikipedia.org/wiki/Rabah_Bitat_Airport","Les Salines Airport, El Mellah Airport, Annabah"
2061,"DABC","medium_airport","Mohamed Boudiaf International Airport",36.276,6.62039,2265,"AF","DZ","DZ-25","Constantine","yes","DABC","CZL","","","http://en.wikipedia.org/wiki/Mohamed_Boudiaf_International_Airport",""
2062,"DABS","medium_airport","Cheikh Larbi Tébessi Airport",35.4316,8.12072,2661,"AF","DZ","DZ-12","Tébessi","yes","DABS","TEE","","","http://en.wikipedia.org/wiki/T%C3%A9bessa_Airport",""
2063,"DABT","medium_airport","Batna Airport",35.7521,6.30859,2697,"AF","DZ","DZ-05","Batna","yes","DABT","BLJ","","","http://en.wikipedia.org/wiki/Batna_Airport",""
2064,"DAFH","medium_airport","Hassi R'Mel Airport",32.9304,3.31154,2540,"AF","DZ","DZ-03","","yes","DAFH","HRM","","","http://en.wikipedia.org/wiki/Hassi_R'Mel_Airport",""
2065,"DAOB","medium_airport","Bou Chekif Airport",35.3411,1.46315,3245,"AF","DZ","DZ-14","Tiaret","no","DAOB","TID","","","http://en.wikipedia.org/wiki/Bou_Chekif_Airport",""
2067,"DAOF","medium_airport","Tindouf Airport",27.7004,-8.1671,1453,"AF","DZ","DZ-37","Tindouf","yes","DAOF","TIN","","","http://en.wikipedia.org/wiki/Tindouf_Airport",""
2068,"DAOI","medium_airport","Ech Cheliff Airport",36.2127,1.33177,463,"AF","DZ","DZ-02","","no","DAOI","CFK","","","http://en.wikipedia.org/wiki/Chlef_International_Airport",""
2069,"DAOL","medium_airport","Tafaraoui Airport",35.5424,-0.532278,367,"AF","DZ","DZ-31","","no","DAOL","TAF","","","",""
2070,"DAON","medium_airport","Zenata – Messali El Hadj Airport",35.0167,-1.45,814,"AF","DZ","DZ-13","Tlemcen","yes","DAON","TLM","","","http://en.wikipedia.org/wiki/Zenata_Airport",""
2071,"DAOO","medium_airport","Es Senia Airport",35.6239,-0.621183,295,"AF","DZ","DZ-31","Oran","yes","DAOO","ORN","","","http://en.wikipedia.org/wiki/Oran_Es_Senia_Airport",""
2072,"DAOR","medium_airport","Béchar Boudghene Ben Ali Lotfi Airport",31.6457,-2.26986,2661,"AF","DZ","DZ-08","Béchar","yes","DAOR","CBH","","","http://en.wikipedia.org/wiki/B%C3%A9char_Ouakda_Airport","Béchar Ouakda Airport"
2074,"DAOV","medium_airport","Ghriss Airport",35.2077,0.147142,1686,"AF","DZ","DZ-29","","no","DAOV","MUW","","","",""
2075,"DAUA","medium_airport","Touat Cheikh Sidi Mohamed Belkebir Airport",27.8376,-0.186414,919,"AF","DZ","DZ-01","","yes","DAUA","AZR","","","http://en.wikipedia.org/wiki/Touat_Cheikh_Sidi_Mohamed_Belkebir_Airport",""
2076,"DAUB","medium_airport","Biskra Airport",34.7933,5.73823,289,"AF","DZ","DZ-07","Biskra","yes","DAUB","BSK","","","http://en.wikipedia.org/wiki/Biskra_Airport",""
2077,"DAUE","medium_airport","El Golea Airport",30.5713,2.85959,1306,"AF","DZ","DZ-47","","yes","DAUE","ELG","","","http://en.wikipedia.org/wiki/El_Golea_Airport",""
2078,"DAUG","medium_airport","Noumérat - Moufdi Zakaria Airport",32.3841,3.79411,1512,"AF","DZ","DZ-47","Ghardaïa","yes","DAUG","GHA","","","http://en.wikipedia.org/wiki/Noumerate_Airport",""
2079,"DAUH","medium_airport","Oued Irara Airport",31.673,6.14044,463,"AF","DZ","DZ-30","Hassi Messaoud","yes","DAUH","HME","","","http://en.wikipedia.org/wiki/Oued_Irara_Airport",""
2080,"DAUI","medium_airport","In Salah Airport",27.251,2.51202,896,"AF","DZ","DZ-11","In Salah","yes","DAUI","INZ","","","http://en.wikipedia.org/wiki/In_Salah_Airport",""
2081,"DAUK","medium_airport","Touggourt Sidi Madhi Airport",33.0678,6.08867,279,"AF","DZ","DZ-30","Touggourt","yes","DAUK","TGR","","","http://en.wikipedia.org/wiki/Touggourt_Sidi_Madhi_Airport",""
2082,"DAUL","medium_airport","Laghouat Airport",33.7644,2.92834,2510,"AF","DZ","DZ-03","Laghouat","no","DAUL","LOO","","","",""
2083,"DAUO","medium_airport","Guemar Airport",33.5114,6.77679,203,"AF","DZ","DZ-39","Guemar","yes","DAUO","ELU","","","http://en.wikipedia.org/wiki/Guemar_Airport",""
2084,"DAUT","medium_airport","Timimoun Airport",29.2371,0.276033,1027,"AF","DZ","DZ-01","Timimoun","yes","DAUT","TMX","","","http://en.wikipedia.org/wiki/Timimoun_Airport",""
2085,"DAUU","medium_airport","Ain el Beida Airport",31.9172,5.41278,492,"AF","DZ","DZ-30","Ouargla","yes","DAUU","OGX","","","http://en.wikipedia.org/wiki/Ain_el_Beida_Airport",""
2086,"DAUZ","medium_airport","In Aménas Airport",28.0515,9.64291,1847,"AF","DZ","DZ-33","Aménas","yes","DAUZ","IAM","","","",""
2087,"DBBB","medium_airport","Cadjehoun Airport",6.35723,2.38435,19,"AF","BJ","BJ-AQ","Cotonou","yes","DBBB","COO","","","http://en.wikipedia.org/wiki/Cadjehoun_Airport",""
2088,"DFFD","medium_airport","Ouagadougou Airport",12.3532,-1.51242,1037,"AF","BF","BF-KAD","Ouagadougou","yes","DFFD","OUA","","","http://en.wikipedia.org/wiki/Ouagadougou_Airport",""
2089,"DFOO","medium_airport","Bobo Dioulasso Airport",11.1601,-4.33097,1511,"AF","BF","BF-HOU","Bobo Dioulasso","yes","DFOO","BOY","","","http://en.wikipedia.org/wiki/Bobo_Dioulasso_Airport",""
2090,"DGAA","large_airport","Kotoka International Airport",5.60519,-0.166786,205,"AF","GH","GH-AA","Accra","yes","DGAA","ACC","","","http://en.wikipedia.org/wiki/Kotoka_International_Airport",""
2091,"DGLE","medium_airport","Tamale Airport",9.55719,-0.863214,553,"AF","GH","GH-NP","Tamale","yes","DGLE","TML","","","http://en.wikipedia.org/wiki/Tamale_Airport",""
2093,"DGSI","medium_airport","Kumasi Airport",6.71456,-1.59082,942,"AF","GH","GH-AH","Kumasi","yes","DGSI","KMS","","","http://en.wikipedia.org/wiki/Kumasi_Airport",""
2094,"DGSN","medium_airport","Sunyani Airport",7.36183,-2.32876,1014,"AF","GH","GH-BA","Sunyani","yes","DGSN","NYI","","","http://en.wikipedia.org/wiki/Sunyani_Airport",""
2095,"DGTK","medium_airport","Takoradi Airport",4.89606,-1.77476,21,"AF","GH","GH-WP","Sekondi-Takoradi","yes","DGTK","TKD","","","http://en.wikipedia.org/wiki/Takoradi_Airport",""
2096,"DIAP","medium_airport","Port Bouet Airport",5.26139,-3.92629,21,"AF","CI","CI-01","Abidjan","yes","DIAP","ABJ","","","http://en.wikipedia.org/wiki/Port_Bouet_Airport","Félix Houphouët-Boigny International Airport"
2097,"DIBK","medium_airport","Bouaké Airport",7.7388,-5.07367,1230,"AF","CI","CI-04","","yes","DIBK","BYK","","","http://en.wikipedia.org/wiki/Bouak%C3%A9_Airport",""
2098,"DIDL","medium_airport","Daloa Airport",6.79281,-6.47319,823,"AF","CI","CI-02","","no","DIDL","DJO","","","",""
2099,"DIKO","medium_airport","Korhogo Airport",9.38718,-5.55666,1214,"AF","CI","CI-03","Korhogo","no","DIKO","HGO","","","http://en.wikipedia.org/wiki/Korhogo_Airport",""
2100,"DIMN","medium_airport","Man Airport",7.27207,-7.58736,1089,"AF","CI","CI-06","","no","DIMN","MJC","","","",""
2101,"DISP","medium_airport","San Pedro Airport",4.74672,-6.66082,26,"AF","CI","CI-09","","no","DISP","SPY","","","",""
2102,"DIYO","medium_airport","Yamoussoukro Airport",6.90317,-5.36558,699,"AF","CI","CI-07","Yamoussoukro","no","DIYO","ASK","","","http://en.wikipedia.org/wiki/Yamoussoukro_Airport",""
2104,"DNAA","large_airport","Nnamdi Azikiwe International Airport",9.00679,7.26317,1123,"AF","NG","NG-FC","Abuja","yes","DNAA","ABV","","http://www.faannigeria.org/nigeria-airport.php?airport=3","http://en.wikipedia.org/wiki/Nnamdi_Azikiwe_International_Airport",""
2105,"DNAK","medium_airport","Akure Airport",7.24674,5.30101,1100,"AF","NG","NG-ON","Akure","yes","DNAK","AKR","","http://www.faannigeria.org/nigeria-airport.php?airport=21","http://en.wikipedia.org/wiki/Akure_Airport",""
2106,"DNBE","medium_airport","Benin Airport",6.31698,5.5995,258,"AF","NG","NG-ED","Benin","yes","DNBE","BNI","","http://www.faannigeria.org/nigeria-airport.php?airport=22","http://en.wikipedia.org/wiki/Benin_Airport",""
2107,"DNCA","medium_airport","Margaret Ekpo International Airport",4.97602,8.3472,210,"AF","NG","NG-CR","Calabar","yes","DNCA","CBQ","","http://www.faannigeria.org/nigeria-airport.php?airport=12","http://en.wikipedia.org/wiki/Margaret_Ekpo_International_Airport",""
2108,"DNEN","medium_airport","Akanu Ibiam International Airport",6.47427,7.56196,466,"AF","NG","NG-EN","Enegu","yes","DNEN","ENU","","http://www.faannigeria.org/nigeria-airport.php?airport=11","http://en.wikipedia.org/wiki/Akanu_Ibiam_International_Airport",""
2110,"DNIB","medium_airport","Ibadan Airport",7.36246,3.97833,725,"AF","NG","NG-OY","Ibadan","yes","DNIB","IBA","","http://www.faannigeria.org/nigeria-airport.php?airport=7","http://en.wikipedia.org/wiki/Ibadan_Airport",""
2111,"DNIL","medium_airport","Ilorin International Airport",8.44021,4.49392,1126,"AF","NG","NG-KW","Ilorin","yes","DNIL","ILR","","http://www.faannigeria.org/nigeria-airport.php?airport=20","http://en.wikipedia.org/wiki/Ilorin_International_Airport",""
2112,"DNIM","medium_airport","Sam Mbakwe International Airport",5.42706,7.20603,373,"AF","NG","NG-IM","Owerri","yes","DNIM","QOW","","http://www.faannigeria.org/nigeria-airport.php?airport=17","http://en.wikipedia.org/wiki/Sam_Mbakwe_International_Cargo_Airport","Imo Airport"
2113,"DNJO","medium_airport","Yakubu Gowon Airport",9.63983,8.86905,4232,"AF","NG","NG-PL","Jos","yes","DNJO","JOS","","http://www.faannigeria.org/nigeria-airport.php?airport=15","http://en.wikipedia.org/wiki/Yakubu_Gowon_Airport",""
2114,"DNKA","medium_airport","Kaduna Airport",10.696,7.32011,2073,"AF","NG","NG-KD","Kaduna","yes","DNKA","KAD","","http://www.faannigeria.org/nigeria-airport.php?airport=10","http://en.wikipedia.org/wiki/Kaduna_Airport",""
2115,"DNKN","large_airport","Mallam Aminu International Airport",12.0476,8.52462,1562,"AF","NG","NG-KN","Kano","yes","DNKN","KAN","","http://www.faannigeria.org/nigeria-airport.php?airport=2","http://en.wikipedia.org/wiki/Mallam_Aminu_Kano_International_Airport",""
2116,"DNMA","medium_airport","Maiduguri International Airport",11.8553,13.0809,1099,"AF","NG","NG-BO","Maiduguri","yes","DNMA","MIU","","http://www.faannigeria.org/nigeria-airport.php?airport=14","http://en.wikipedia.org/wiki/Maiduguri_International_Airport",""
2117,"DNMK","medium_airport","Makurdi Airport",7.70388,8.61394,371,"AF","NG","NG-BE","Makurdi","yes","DNMK","MDI","","http://www.faannigeria.org/nigeria-airport.php?airport=23","https://en.wikipedia.org/wiki/Makurdi_Airport",""
2118,"DNMM","large_airport","Murtala Muhammed International Airport",6.57737,3.32116,135,"AF","NG","NG-LA","Lagos","yes","DNMM","LOS","","http://www.faannigeria.org/nigeria-airport.php?airport=1","http://en.wikipedia.org/wiki/Murtala_Mohammed_International_Airport",""
2119,"DNMN","medium_airport","Minna Airport",9.65217,6.46226,834,"AF","NG","NG-NI","Minna","no","DNMN","MXJ","","http://www.faannigeria.org/nigeria-airport.php?airport=19","http://en.wikipedia.org/wiki/Minna_Airport",""
2120,"DNPO","medium_airport","Port Harcourt International Airport",5.01549,6.94959,87,"AF","NG","NG-RI","Port Harcourt","yes","DNPO","PHC","","http://www.faannigeria.org/nigeria-airport.php?airport=4","http://en.wikipedia.org/wiki/Port_Harcourt_International_Airport",""
2121,"DNSO","medium_airport","Sadiq Abubakar III International Airport",12.9163,5.20719,1010,"AF","NG","NG-SO","Sokoto","yes","DNSO","SKO","","http://www.faannigeria.org/nigeria-airport.php?airport=13","http://en.wikipedia.org/wiki/Sadiq_Abubakar_III_International_Airport",""
2122,"DNYO","medium_airport","Yola Airport",9.25755,12.4304,599,"AF","NG","NG-AD","Yola","yes","DNYO","YOL","","http://www.faannigeria.org/nigeria-airport.php?airport=16","http://en.wikipedia.org/wiki/Yola_Airport",""
2123,"DNZA","medium_airport","Zaria Airport",11.1302,7.68581,2170,"AF","NG","NG-KD","Zaria","no","DNZA","ZAR","","http://www.faannigeria.org/nigeria-airport.php?airport=24","https://en.wikipedia.org/wiki/Zaria_Airport",""
2124,"DRRM","medium_airport","Maradi Airport",13.5025,7.12675,1240,"AF","NE","NE-4","Maradi","no","DRRM","MFQ","","","",""
2125,"DRRN","medium_airport","Diori Hamani International Airport",13.4815,2.18361,732,"AF","NE","NE-8","Niamey","yes","DRRN","NIM","","","http://en.wikipedia.org/wiki/Diori_Hamani_International_Airport",""
2126,"DRRT","medium_airport","Tahoua Airport",14.8757,5.26536,1266,"AF","NE","NE-5","Tahoua","no","DRRT","THZ","","","",""
2127,"DRZA","medium_airport","Mano Dayak International Airport",16.966,8.00011,1657,"AF","NE","NE-1","Agadez","yes","DRZA","AJY","","","http://en.wikipedia.org/wiki/Mano_Dayak_International_Airport",""
2130,"DRZR","medium_airport","Zinder Airport",13.779,8.98376,1516,"AF","NE","NE-7","Zinder","yes","DRZR","ZND","","","http://en.wikipedia.org/wiki/Zinder_Airport",""
2131,"DTKA","medium_airport","Tabarka 7 Novembre Airport",36.98,8.87694,230,"AF","TN","TN-32","Tabarka","yes","DTKA","TBJ","","","http://en.wikipedia.org/wiki/Tabarka_-_7_Novembre_International_Airport",""
2132,"DTMB","medium_airport","Monastir Habib Bourguiba International Airport",35.7581,10.7547,9,"AF","TN","TN-52","Monastir","yes","DTMB","MIR","","","http://en.wikipedia.org/wiki/Habib_Bourguiba_International_Airport",""
2133,"DTTA","large_airport","Tunis Carthage International Airport",36.851,10.2272,22,"AF","TN","TN-11","Tunis","yes","DTTA","TUN","","http://www.oaca.nat.tn/english/div_horizontal_tunis_airport_eng.htm","http://en.wikipedia.org/wiki/Tunis-Carthage_International_Airport","Aéroport international de Tunis-Carthage, مطار تونس قرطاج الدولي"
2136,"DTTF","medium_airport","Gafsa Ksar International Airport",34.422,8.8225,1060,"AF","TN","TN-71","Gafsa","yes","DTTF","GAF","","","http://en.wikipedia.org/wiki/Gafsa_-_Ksar_International_Airport",""
2137,"DTTG","medium_airport","Gabès Matmata International Airport",33.8769,10.1033,26,"AF","TN","TN-81","Gabès","yes","DTTG","GAE","","","http://en.wikipedia.org/wiki/Gab%C3%A8s_-_Matmata_International_Airport",""
2139,"DTTJ","medium_airport","Djerba Zarzis International Airport",33.875,10.7755,19,"AF","TN","TN-82","Djerba","yes","DTTJ","DJE","","","http://en.wikipedia.org/wiki/Djerba-Zarzis_Airport",""
2140,"DTTR","medium_airport","El Borma Airport",31.7043,9.25462,827,"AF","TN","TN-83","El Borma","no","DTTR","EBM","","","",""
2141,"DTTX","medium_airport","Sfax Thyna International Airport",34.718,10.691,85,"AF","TN","TN-61","Sfax","yes","DTTX","SFA","","","http://en.wikipedia.org/wiki/Thyna_Airport",""
2142,"DTTZ","medium_airport","Tozeur Nefta International Airport",33.9397,8.11056,287,"AF","TN","TN-72","Tozeur","yes","DTTZ","TOE","","","http://en.wikipedia.org/wiki/Nefta_Airport",""
2143,"DXNG","medium_airport","Niamtougou International Airport",9.76733,1.09125,1515,"AF","TG","TG-K","Niamtougou","no","DXNG","LRL","","","http://en.wikipedia.org/wiki/Niamtougou_International_Airport",""
2144,"DXXX","medium_airport","Lomé-Tokoin Airport",6.16561,1.25451,72,"AF","TG","TG-M","Lomé","yes","DXXX","LFW","","","http://en.wikipedia.org/wiki/Lom%C3%A9-Tokoin_Airport","Gnassingbe Eyadema International Airport"
2152,"EBAW","medium_airport","Antwerp International Airport (Deurne)",51.1894,4.46028,39,"EU","BE","BE-VAN","Antwerp","yes","EBAW","ANR","","http://www.antwerp-airport.be/","http://en.wikipedia.org/wiki/Antwerp_International_Airport",""
2155,"EBBR","large_airport","Brussels Airport",50.9014,4.48444,184,"EU","BE","BE-BRU","Brussels","yes","EBBR","BRU","","http://www.brusselsairport.be/en/","http://en.wikipedia.org/wiki/Brussels_Airport",""
2157,"EBCI","large_airport","Brussels South Charleroi Airport",50.4592,4.45382,614,"EU","BE","BE-WHT","Brussels","yes","EBCI","CRL","","http://www.charleroi-airport.com/doc.php?nd=o29&tid=29&lg=2&docid=1&site=1","http://en.wikipedia.org/wiki/Brussels_South_Charleroi_Airport","Gosselies Airport"
2161,"EBKT","medium_airport","Wevelgem Airport",50.8172,3.20472,64,"EU","BE","BE-VWV","Wevelgem","no","EBKT","KJK","","http://www.kortrijkairport.be","http://en.wikipedia.org/wiki/Kortrijk-Wevelgem_International_Airport",""
2162,"EBLG","large_airport","Liège Airport",50.6374,5.44322,659,"EU","BE","BE-WLG","Liège","yes","EBLG","LGG","","http://www.liegeairport.be/","http://en.wikipedia.org/wiki/Li%C3%A8ge_Airport",""
2163,"EBOS","medium_airport","Ostend-Bruges International Airport",51.1989,2.86222,13,"EU","BE","BE-VWV","Ostend","yes","EBOS","OST","","http://www.ost.aero/","http://en.wikipedia.org/wiki/Ostend-Bruges_International_Airport",""
2184,"EDAC","medium_airport","Altenburg-Nobitz Airport",50.9819,12.5064,640,"EU","DE","DE-TH","Altenburg","yes","EDAC","AOC","","http://www.leipzig-altenburg-airport.de/","http://en.wikipedia.org/wiki/Altenburg-Nobitz_Airport","Altenburg Nobitz"
2187,"EDAH","medium_airport","Heringsdorf Airport",53.8787,14.1523,93,"EU","DE","DE-MV","Heringsdorf","yes","EDAH","HDF","","","http://en.wikipedia.org/wiki/Heringsdorf_Airport",""
2199,"EDBM","medium_airport","Magdeburg \"City\" Airport",52.0736,11.6264,259,"EU","DE","DE-ST","Magdeburg","no","EDBM","ZMG","","http://www.edbm.de","https://en.wikipedia.org/wiki/Magdeburg%E2%80%93Cochstedt_Airport",""
2204,"EDCD","medium_airport","Cottbus-Drewitz Airport",51.8894,14.5319,272,"EU","DE","DE-BR","Cottbus","no","EDCD","CBU","","","https://en.wikipedia.org/wiki/Cottbus-Drewitz_Airport",""
2209,"EDDB","large_airport","Berlin-Schönefeld Airport",52.38,13.5225,157,"EU","DE","DE-BR","Berlin","yes","EDDB","SXF","","http://www.berlin-airport.de/en/travellers-sxf/index.php","http://en.wikipedia.org/wiki/Berlin-Sch%C3%B6nefeld_International_Airport","BER, Schoenefeld"
2210,"EDDC","large_airport","Dresden Airport",51.1328,13.7672,755,"EU","DE","DE-SN","Dresden","yes","EDDC","DRS","","http://www.dresden-airport.de/en/index.html","http://en.wikipedia.org/wiki/Dresden_Airport",""
2211,"EDDE","medium_airport","Erfurt Airport",50.9798,10.9581,1036,"EU","DE","DE-TH","Erfurt","yes","EDDE","ERF","","http://www.airport-erfurt.de/","http://en.wikipedia.org/wiki/Erfurt_Airport","Flughafen Erfurt"
2212,"EDDF","large_airport","Frankfurt am Main Airport",50.0333,8.57056,364,"EU","DE","DE-HE","Frankfurt am Main","yes","EDDF","FRA","","http://www.frankfurt-airport.de/","http://en.wikipedia.org/wiki/Frankfurt_Airport","EDAF, Rhein-Main Air Base"
2213,"EDDG","large_airport","Münster Osnabrück Airport",52.1346,7.68483,160,"EU","DE","DE-NW","Münster","yes","EDDG","FMO","","","http://en.wikipedia.org/wiki/M%C3%BCnster_Osnabr%C3%BCck_International_Airport",""
2214,"EDDH","large_airport","Hamburg Airport",53.6304,9.98823,53,"EU","DE","DE-HH","Hamburg","yes","EDDH","HAM","","https://www.hamburg-airport.de/en/","http://en.wikipedia.org/wiki/Hamburg_Airport",""
2216,"EDDK","large_airport","Cologne Bonn Airport",50.8659,7.14274,302,"EU","DE","DE-NW","Cologne","yes","EDDK","CGN","","http://www.koeln-bonn-airport.de/en/","http://en.wikipedia.org/wiki/Cologne_Bonn_Airport","Köln"
2217,"EDDL","large_airport","Düsseldorf Airport",51.2895,6.76678,147,"EU","DE","DE-NW","Düsseldorf","yes","EDDL","DUS","","http://www.dus.com/dus_en/","http://en.wikipedia.org/wiki/D%C3%BCsseldorf_Airport",""
2218,"EDDM","large_airport","Munich Airport",48.3538,11.7861,1487,"EU","DE","DE-BY","Munich","yes","EDDM","MUC","","http://www.munich-airport.com/","http://en.wikipedia.org/wiki/Munich_International_Airport","Franz Josef Strauss Airport, Flughafen München Franz Josef Strauß"
2219,"EDDN","large_airport","Nuremberg Airport",49.4987,11.0781,1046,"EU","DE","DE-BY","Nuremberg","yes","EDDN","NUE","","https://www.airport-nuernberg.de/english","http://en.wikipedia.org/wiki/Nuremberg_Airport","Nürnberg"
2220,"EDDP","large_airport","Leipzig/Halle Airport",51.4239,12.2364,465,"EU","DE","DE-SN","Leipzig","yes","EDDP","LEJ","","http://www.leipzig-halle-airport.de/en/index.html","http://en.wikipedia.org/wiki/Leipzig/Halle_Airport","Schkeuditz Airport"
2221,"EDDR","medium_airport","Saarbrücken Airport",49.2146,7.10951,1058,"EU","DE","DE-SL","Saarbrücken","yes","EDDR","SCN","","http://www.flughafen-saarbruecken.de/","http://en.wikipedia.org/wiki/Saarbr%C3%BCcken_Airport",""
2222,"EDDS","large_airport","Stuttgart Airport",48.6899,9.22196,1276,"EU","DE","DE-BW","Stuttgart","yes","EDDS","STR","","http://www.flughafen-stuttgart.de/","http://en.wikipedia.org/wiki/Stuttgart_Airport",""
2223,"EDDT","large_airport","Berlin-Tegel Airport",52.5597,13.2877,122,"EU","DE","DE-BE","Berlin","yes","EDDT","TXL","","http://www.berlin-airport.de/en/travellers-txl/index.php","http://en.wikipedia.org/wiki/Berlin-Tegel_International_Airport","BER, Otto Lilienthal"
2224,"EDDV","large_airport","Hannover Airport",52.4611,9.68508,183,"EU","DE","DE-NI","Hannover","yes","EDDV","HAJ","","","http://en.wikipedia.org/wiki/Hanover/Langenhagen_International_Airport",""
2225,"EDDW","large_airport","Bremen Airport",53.0475,8.78667,14,"EU","DE","DE-HB","Bremen","yes","EDDW","BRE","","","http://en.wikipedia.org/wiki/Bremen_Airport",""
2226,"EDFE","medium_airport","Frankfurt-Egelsbach Airport",49.96,8.64583,384,"EU","DE","DE-HE","Frankfurt am Main","no","EDFE","QEF","","http://www.egelsbach-airport.com/","http://en.wikipedia.org/wiki/Frankfurt_Egelsbach_Airport",""
2227,"EDFH","medium_airport","Frankfurt-Hahn Airport",49.9487,7.26389,1649,"EU","DE","DE-RP","Frankfurt am Main","yes","EDFH","HHN","","","http://en.wikipedia.org/wiki/Frankfurt-Hahn_Airport",""
2228,"EDFM","medium_airport","Mannheim-City Airport",49.4731,8.51417,308,"EU","DE","DE-BW","Mannheim","yes","EDFM","MHG","","http://www.flugplatz-mannheim.de/","http://en.wikipedia.org/wiki/Mannheim_City_Airport","Mannheim"
2232,"EDGE","medium_airport","Eisenach-Kindel Airport",50.9916,10.4797,1112,"EU","DE","DE-TH","Eisenach","no","EDGE","EIB","","http://www.flugplatz-eisenach.de/","http://de.wikipedia.org/wiki/Flugplatz_Eisenach-Kindel","Flugplatz Eisenach-Kindel"
2233,"EDGS","medium_airport","Siegerland Airport",50.7077,8.08297,1966,"EU","DE","DE-NW","","no","EDGS","SGE","","","http://en.wikipedia.org/wiki/Siegerland_Airport",""
2234,"EDHI","medium_airport","Hamburg-Finkenwerder Airport",53.5353,9.83556,23,"EU","DE","DE-HH","Hamburg","no","EDHI","XFW","","","http://en.wikipedia.org/wiki/Hamburg_Finkenwerder_Airport",""
2235,"EDHK","medium_airport","Kiel-Holtenau Airport",54.3794,10.1453,102,"EU","DE","DE-SH","Kiel","yes","EDHK","KEL","","","http://en.wikipedia.org/wiki/Kiel-Holtenau_airport",""
2236,"EDHL","medium_airport","Lübeck Blankensee Airport",53.8054,10.7192,53,"EU","DE","DE-SH","Lübeck","yes","EDHL","LBC","","","http://en.wikipedia.org/wiki/L%C3%BCbeck_Airport",""
2237,"EDJA","medium_airport","Memmingen Allgau Airport",47.9888,10.2395,2077,"EU","DE","DE-BY","Memmingen","yes","EDJA","FMM","","","http://en.wikipedia.org/wiki/Memmingen_Airport",""
2243,"EDLN","medium_airport","Mönchengladbach Airport",51.2303,6.50444,125,"EU","DE","DE-NW","Mönchengladbach","no","EDLN","MGL","","","http://en.wikipedia.org/wiki/D%C3%BCsseldorf-M%C3%B6nchengladbach_Airport",""
2244,"EDLP","medium_airport","Paderborn Lippstadt Airport",51.6141,8.61632,699,"EU","DE","DE-NW","Paderborn","yes","EDLP","PAD","","","http://en.wikipedia.org/wiki/Paderborn_Lippstadt_Airport",""
2246,"EDLV","medium_airport","Weeze Airport",51.6024,6.14217,106,"EU","DE","DE-NW","Weeze","yes","EDLV","NRN","","http://www.airport-weeze.de/de","http://en.wikipedia.org/wiki/Airport_Weeze","LRC, ETUL, Niederrhein Airport, RAF Laarbruch, Düsseldorf Regional"
2247,"EDLW","large_airport","Dortmund Airport",51.5183,7.61224,425,"EU","DE","DE-NW","Dortmund","yes","EDLW","DTM","","","http://en.wikipedia.org/wiki/Dortmund_Airport",""
2248,"EDMA","medium_airport","Augsburg Airport",48.4253,10.9317,1516,"EU","DE","DE-BY","Augsburg","yes","EDMA","AGB","","","https://en.wikipedia.org/wiki/Augsburg_Airport",""
2252,"EDMO","medium_airport","Oberpfaffenhofen Airport",48.0814,11.2831,1947,"EU","DE","DE-BY","","no","EDMO","OBF","","","","Weßling"
2256,"EDNY","medium_airport","Friedrichshafen Airport",47.6713,9.51149,1367,"EU","DE","DE-BW","Friedrichshafen","yes","EDNY","FDH","","","http://en.wikipedia.org/wiki/Friedrichshafen_Airport",""
2258,"EDOP","medium_airport","Schwerin Parchim Airport",53.427,11.7834,166,"EU","DE","DE-MV","","no","EDOP","SZW","","","https://en.wikipedia.org/wiki/Parchim_International_Airport",""
2261,"EDQD","medium_airport","Bayreuth Airport",49.985,11.64,1601,"EU","DE","DE-BY","Bayreuth","no","EDQD","BYU","","","http://en.wikipedia.org/wiki/Bindlacher_Berg_Airport","Bindlacher Berg Airport"
2263,"EDQM","medium_airport","Hof-Plauen Airport",50.2886,11.8564,1959,"EU","DE","DE-BY","Hof","yes","EDQM","HOQ","","","http://en.wikipedia.org/wiki/Hof-Plauen_Airport",""
2270,"EDSB","large_airport","Karlsruhe Baden-Baden Airport",48.7794,8.0805,408,"EU","DE","DE-BW","Baden-Baden","yes","EDSB","FKB","","http://www.baden-airpark.de/startseite.html","http://en.wikipedia.org/wiki/Baden_Airpark","Baden Airpark"
2273,"EDTD","medium_airport","Donaueschingen-Villingen Airport",47.9733,8.52222,2231,"EU","DE","DE-BW","Donaueschingen","no","EDTD","ZQL","","http://www.flugplatz-donaueschingen.de/","http://de.wikipedia.org/wiki/Flugplatz_Donaueschingen-Villingen",""
2276,"EDTL","medium_airport","Lahr Airport",48.3693,7.82772,511,"EU","DE","DE-BW","","no","EDTL","LHA","","http://airport-lahr.de/","http://en.wikipedia.org/wiki/CFB_Lahr","Black Forest Airport"
2284,"EDVE","medium_airport","Braunschweig-Wolfsburg Airport",52.3192,10.5561,295,"EU","DE","DE-NI","Braunschweig","yes","EDVE","BWE","","http://www.flughafen-braunschweig-wolfsburg.de/","https://en.wikipedia.org/wiki/Braunschweig_Airport",""
2285,"EDVK","medium_airport","Kassel-Calden Airport",51.4173,9.38497,820,"EU","DE","DE-HE","Kassel","yes","EDVK","KSF","","http://www.flughafenkassel.de/","http://en.wikipedia.org/wiki/Kassel_Calden_Airport",""
2296,"EDXW","medium_airport","Westerland Sylt Airport",54.9132,8.34047,51,"EU","DE","DE-SH","Westerland","yes","EDXW","GWT","","","http://en.wikipedia.org/wiki/Sylt_Airport",""
2298,"EEKA","medium_airport","Kärdla Airport",58.9908,22.8307,18,"EU","EE","EE-39","Kärdla","yes","EEKA","KDL","","","http://en.wikipedia.org/wiki/K%C3%A4rdla_Airport",""
2299,"EEKE","medium_airport","Kuressaare Airport",58.2299,22.5095,14,"EU","EE","EE-74","Kuressaare","yes","EEKE","URE","","http://www.eeke.ee/","http://en.wikipedia.org/wiki/Kuressaare_Airport",""
2300,"EEPU","medium_airport","Pärnu Airport",58.419,24.4728,47,"EU","EE","EE-67","Pärnu","yes","EEPU","EPU","","","http://en.wikipedia.org/wiki/P%C3%A4rnu_Airport",""
2301,"EETN","large_airport","Lennart Meri Tallinn Airport",59.4133,24.8328,131,"EU","EE","EE-37","Tallinn","yes","EETN","TLL","","http://www.tallinn-airport.ee/eng","http://en.wikipedia.org/wiki/Tallinn_Airport",""
2302,"EETU","medium_airport","Tartu Airport",58.3075,26.6904,219,"EU","EE","EE-7B","Tartu","yes","EETU","TAY","","","http://en.wikipedia.org/wiki/Tartu_Airport",""
2303,"EFET","medium_airport","Enontekio Airport",68.3626,23.4243,1005,"EU","FI","FI-LL","Enontekio","yes","EFET","ENF","","http://www.finavia.fi/en/enontekio/","https://en.wikipedia.org/wiki/Enonteki%C3%B6_Airport",""
2305,"EFHA","medium_airport","Halli Airport",61.856,24.7867,479,"EU","FI","FI-LS","Halli / Kuorevesi","no","EFHA","KEV","","","https://en.wikipedia.org/wiki/Halli_Airport","Halli Air Base"
2306,"EFHF","medium_airport","Helsinki Malmi Airport",60.2546,25.0428,57,"EU","FI","FI-ES","Helsinki","no","EFHF","HEM","","","http://en.wikipedia.org/wiki/Helsinki-Malmi_Airport",""
2307,"EFHK","large_airport","Helsinki Vantaa Airport",60.3172,24.9633,179,"EU","FI","FI-ES","Helsinki","yes","EFHK","HEL","","http://www.finavia.fi/en/helsinki-airport","http://en.wikipedia.org/wiki/Helsinki-Vantaa_Airport",""
2313,"EFIT","medium_airport","Kitee Airport",62.1661,30.0736,364,"EU","FI","FI-IS","","no","EFIT","KTQ","","","https://en.wikipedia.org/wiki/Kitee_Airfield",""
2314,"EFIV","medium_airport","Ivalo Airport",68.6073,27.4053,481,"EU","FI","FI-LL","Ivalo","yes","EFIV","IVL","","http://www.finavia.fi/en/ivalo/","http://en.wikipedia.org/wiki/Ivalo_Airport",""
2315,"EFJO","medium_airport","Joensuu Airport",62.6629,29.6075,398,"EU","FI","FI-IS","Joensuu / Liperi","yes","EFJO","JOE","","http://www.finavia.fi/en/joensuu/","http://en.wikipedia.org/wiki/Joensuu_Airport",""
2316,"EFJY","medium_airport","Jyvaskyla Airport",62.3995,25.6783,459,"EU","FI","FI-LS","Jyväskylän Maalaiskunta","yes","EFJY","JYV","","https://www.finavia.fi/en/jyvaskyla/","http://en.wikipedia.org/wiki/Jyv%C3%A4skyl%C3%A4_Airport",""
2317,"EFKA","medium_airport","Kauhava Airport",63.1271,23.0514,151,"EU","FI","FI-LS","Kauhava","no","EFKA","KAU","","","https://en.wikipedia.org/wiki/Kauhava_Airfield","Kauhava Air Base"
2318,"EFKE","medium_airport","Kemi-Tornio Airport",65.7787,24.5821,61,"EU","FI","FI-LL","Kemi / Tornio","yes","EFKE","KEM","","http://www.finavia.fi/en/kemi-tornio/","http://en.wikipedia.org/wiki/Kemi-Tornio_Airport",""
2319,"EFKI","medium_airport","Kajaani Airport",64.2855,27.6924,483,"EU","FI","FI-OL","Kajaani","yes","EFKI","KAJ","","https://www.finavia.fi/en/kajaani/","http://en.wikipedia.org/wiki/Kajaani_Airport",""
2320,"EFKJ","medium_airport","Kauhajoki Airport",62.4625,22.3931,407,"EU","FI","FI-LS","","no","EFKJ","KHJ","","","http://en.wikipedia.org/wiki/Kauhajoki_Airfield",""
2321,"EFKK","medium_airport","Kokkola-Pietarsaari Airport",63.7212,23.1431,84,"EU","FI","FI-LS","Kokkola / Kruunupyy","yes","EFKK","KOK","","https://www.finavia.fi/en/kokkola-pietarsaari/","https://en.wikipedia.org/wiki/Kokkola-Pietarsaari_Airport","Kronoby Airport"
2324,"EFKS","medium_airport","Kuusamo Airport",65.9876,29.2394,866,"EU","FI","FI-OL","Kuusamo","yes","EFKS","KAO","","http://www.finavia.fi/en/kuusamo/","http://en.wikipedia.org/wiki/Kuusamo_Airport",""
2325,"EFKT","medium_airport","Kittilä Airport",67.701,24.8468,644,"EU","FI","FI-LL","Kittilä","yes","EFKT","KTT","","http://www.finavia.fi/en/kittila/","http://en.wikipedia.org/wiki/Kittil%C3%A4_Airport",""
2326,"EFKU","medium_airport","Kuopio Airport",63.0071,27.7978,323,"EU","FI","FI-IS","Kuopio / Siilinjärvi","yes","EFKU","KUO","","https://www.finavia.fi/en/kuopio/","http://en.wikipedia.org/wiki/Kuopio_Airport",""
2329,"EFLP","medium_airport","Lappeenranta Airport",61.0446,28.1447,349,"EU","FI","FI-ES","Lappeenranta","no","EFLP","LPP","","https://www.finavia.fi/en/lappeenranta/","http://en.wikipedia.org/wiki/Lappeenranta_Airport",""
2330,"EFMA","medium_airport","Mariehamn Airport",60.1222,19.8982,17,"EU","FI","FI-AL","","yes","EFMA","MHQ","","http://www.finavia.fi/en/mariehamn/","http://en.wikipedia.org/wiki/Mariehamn_Airport",""
2332,"EFMI","medium_airport","Mikkeli Airport",61.6866,27.2018,329,"EU","FI","FI-IS","Mikkeli","no","EFMI","MIK","","http://www.mikkelinlentoasema.fi/en/","http://en.wikipedia.org/wiki/Mikkeli_Airport",""
2334,"EFOU","medium_airport","Oulu Airport",64.9301,25.3546,47,"EU","FI","FI-OL","Oulu / Oulunsalo","yes","EFOU","OUL","","https://www.finavia.fi/en/oulu/","http://en.wikipedia.org/wiki/Oulu_Airport",""
2336,"EFPO","medium_airport","Pori Airport",61.4617,21.8,44,"EU","FI","FI-LS","Pori","yes","EFPO","POR","","http://www.finavia.fi/en/pori/","http://en.wikipedia.org/wiki/Pori_Airport",""
2341,"EFRO","medium_airport","Rovaniemi Airport",66.5648,25.8304,642,"EU","FI","FI-LL","Rovaniemi","yes","EFRO","RVN","","http://www.finavia.fi/en/rovaniemi/","http://en.wikipedia.org/wiki/Rovaniemi_Airport",""
2343,"EFSA","medium_airport","Savonlinna Airport",61.9431,28.9451,311,"EU","FI","FI-IS","Savonlinna","yes","EFSA","SVL","","http://www.finavia.fi/en/savonlinna/","http://en.wikipedia.org/wiki/Savonlinna_Airport",""
2345,"EFSI","medium_airport","Seinäjoki Airport",62.6921,22.8323,302,"EU","FI","FI-LS","Seinäjoki / Ilmajoki","yes","EFSI","SJY","","","http://en.wikipedia.org/wiki/Sein%C3%A4joki_Airport",""
2346,"EFSO","medium_airport","Sodankyla Airport",67.395,26.6191,602,"EU","FI","FI-LL","Sodankyla","no","EFSO","SOT","","","http://en.wikipedia.org/wiki/Sodankyl%C3%A4_Airfield",""
2347,"EFTP","medium_airport","Tampere-Pirkkala Airport",61.4141,23.6044,390,"EU","FI","FI-LS","Tampere / Pirkkala","yes","EFTP","TMP","","https://www.finavia.fi/en/tampere-pirkkala/","http://en.wikipedia.org/wiki/Tampere-Pirkkala_Airport",""
2349,"EFTU","medium_airport","Turku Airport",60.5141,22.2628,161,"EU","FI","FI-LS","Turku","yes","EFTU","TKU","","https://www.finavia.fi/en/turku/","http://en.wikipedia.org/wiki/Turku_Airport",""
